상호명,상권업종대분류명,상권업종중분류명,상권업종소분류명,도로명주소,구우편번호,신우편번호,경도,위도
777당구장,예술·스포츠,스포츠 서비스,당구장,경기도 오산시 성호대로 130,447060.0,18139,127.07580063236,37.1484726773736
올웨이즈핏,예술·스포츠,스포츠 서비스,헬스장,경기도 평택시 평택5로34번길 22,450020.0,17902,127.112823633684,36.9895212528434
고향당구장,예술·스포츠,스포츠 서비스,당구장,경기도 화성시 우정읍 매바위로 70,445956.0,18559,126.816978285532,37.1220536524081
훼밀리스크린골프,예술·스포츠,스포츠 서비스,골프 연습장,경기도 수원시 권선구 오목천로57번길 10-24,441851.0,16636,126.969638457817,37.2403913963999
쏘폴스튜디오,예술·스포츠,스포츠 서비스,기타 스포츠시설 운영업,경기도 양주시 옥정동로7다길 74,482130.0,11473,127.092815217696,37.8206847333087
즐거운락스피닝,예술·스포츠,스포츠 서비스,헬스장,경기도 파주시 중앙로 301,413800.0,10929,126.775452476715,37.7625395206187
양주탁구클럽,예술·스포츠,스포츠 서비스,탁구장,경기도 양주시 광적면 부흥로 941,482841.0,11416,126.994049419172,37.8099637139843
김장훈탁구클럽,예술·스포츠,스포츠 서비스,탁구장,경기도 수원시 장안구 송원로59번길 8,440806.0,16305,127.008019411551,37.300746754348
타워휘트니스센터,예술·스포츠,스포츠 서비스,헬스장,경기도 수원시 권선구 하탑로 54,441100.0,16610,126.977654246745,37.2691544907084
백운당구클럽,예술·스포츠,스포츠 서비스,당구장,경기도 의왕시 안양판교로 211,437110.0,16009,126.994647407242,37.3898136972731
코오롱글로벌스포렉스운정주,예술·스포츠,스포츠 서비스,수영장,경기도 파주시 와석순환로 415,413190.0,10894,126.751590110169,37.7239572908596
빅스타탁구클럽,예술·스포츠,스포츠 서비스,탁구장,경기도 군포시 번영로 508,435861.0,15862,126.933888476163,37.3579170650326
서연스크린골프,예술·스포츠,스포츠 서비스,골프 연습장,경기도 양평군 용문면 용문산로 178,476845.0,12511,127.604842194187,37.5135961447471
그린탑스크린골프존,예술·스포츠,스포츠 서비스,골프 연습장,경기도 광명시 디지털로33번길 23,423837.0,14239,126.870124405822,37.4758976280237
청북당구클럽,예술·스포츠,스포츠 서비스,당구장,경기도 평택시 청북읍 안청로2길 33-13,451832.0,17808,126.917239160254,37.0174254828865
엠에스휘트니스덕계점,예술·스포츠,스포츠 서비스,헬스장,경기도 양주시 평화로 1426,482050.0,11444,127.046269711926,37.8181084470864
대명당구장,예술·스포츠,스포츠 서비스,당구장,경기도 포천시 영중면 양문로 98-1,487883.0,11129,127.242852995465,38.0013529112037
모네타스크린골프클럽,예술·스포츠,스포츠 서비스,골프 연습장,경기도 의정부시 외미로 95,480853.0,11637,127.046041333111,37.7245974302576
01당구장,예술·스포츠,스포츠 서비스,당구장,경기도 수원시 권선구 장다리로 66,441878.0,16580,127.020391814941,37.2562609273035
현대스포츠센터,예술·스포츠,스포츠 서비스,헬스장,경기도 수원시 영통구 태장로 45,443777.0,16688,127.051965597857,37.2394467992219
부천브래그,예술·스포츠,스포츠 서비스,볼링장,경기도 부천시 원미구 길주로 125,420862.0,14542,126.756385153302,37.5061538294389
창우골프존,예술·스포츠,스포츠 서비스,골프 연습장,경기도 하남시 대청로116번길 30-1,465712.0,12954,127.223974032671,37.537907936395
건강해GYM,예술·스포츠,스포츠 서비스,헬스장,경기도 남양주시 오남읍 진건오남로 944,472881.0,12036,127.191242848316,37.7067742367571
의왕행복골프훈련소,예술·스포츠,스포츠 서비스,골프 연습장,경기도 의왕시 경수대로 262,437070.0,16058,126.973183215437,37.3506792217014
엔에이피FEEL스크린지점,예술·스포츠,스포츠 서비스,골프 연습장,경기도 고양시 덕양구 대주로107번길 34,412250.0,10456,126.813582984136,37.6363254344799
배틀존스크린골프,예술·스포츠,스포츠 서비스,골프 연습장,경기도 광주시 송정로 62,464100.0,12739,127.252613079753,37.4174845885717
에스라인휘트니스,예술·스포츠,스포츠 서비스,헬스장,경기도 광주시 광주대로 56-1,464801.0,12757,127.260929651593,37.4116459575741
예스골프존,예술·스포츠,스포츠 서비스,골프 연습장,경기도 하남시 검단산로 293-4,465816.0,13023,127.232847755517,37.5388818710341
나단,예술·스포츠,스포츠 서비스,골프 연습장,경기도 수원시 영통구 덕영대로1555번길 20,443811.0,16700,127.062238453432,37.2466952598094
리프레쉬피트니스,예술·스포츠,스포츠 서비스,헬스장,경기도 시흥시 남왕길 30,429320.0,14985,126.860913662138,37.3826229540805
TIP스크린골프,예술·스포츠,스포츠 서비스,골프 연습장,경기도 시흥시 산기대학로 237,429793.0,15073,126.733541499126,37.3397320279433
대지당구클럽,예술·스포츠,스포츠 서비스,당구장,경기도 성남시 수정구 산성대로 261,461862.0,13353,127.146019205735,37.4408204146093
스포데이,예술·스포츠,스포츠 서비스,헬스장,경기도 안성시 공도읍 공도로 159,456823.0,17560,127.176557854889,37.0034824243157
더블케이짐,예술·스포츠,스포츠 서비스,헬스장,경기도 용인시 기흥구 흥덕중앙로 41,446908.0,16953,127.071565234125,37.2765144920965
김범준트레이닝센터,예술·스포츠,스포츠 서비스,헬스장,경기도 성남시 중원구 양현로405번길 14,462080.0,13438,127.127403641622,37.4182264366778
인정락볼링클럽,예술·스포츠,스포츠 서비스,볼링장,경기도 용인시 처인구 금어로 2,449935.0,17038,127.215518781152,37.2646804911359
드림당구클럽,예술·스포츠,스포츠 서비스,당구장,경기도 성남시 분당구 미금일로 81,463810.0,13632,127.110747213922,37.3456116909801
자마이카피트니스,예술·스포츠,스포츠 서비스,헬스장,경기도 안양시 동안구 평촌대로243번길 30,431811.0,14047,126.953044362126,37.3928319320982
밀라노짐,예술·스포츠,스포츠 서비스,헬스장,경기도 성남시 분당구 판교로 471,463840.0,13521,127.126219118754,37.4057305737109
월드당구클럽,예술·스포츠,스포츠 서비스,당구장,경기도 의정부시 장곡로 598,480864.0,11775,127.069295291991,37.7497591474001
에이스당구장,예술·스포츠,스포츠 서비스,당구장,경기도 고양시 일산동구 숲속마을로 50-70,410330.0,10306,126.799098538466,37.6677188829203
커브스도농클럽,예술·스포츠,스포츠 서비스,헬스장,경기도 남양주시 도농로 34,,12251,127.157560124964,37.6092748367703
테니스장,예술·스포츠,스포츠 서비스,테니스장,경기도 고양시 덕양구 호국로1245번길 271,412030.0,10290,126.864935311892,37.6826878034182
솔라플러스,예술·스포츠,스포츠 서비스,골프 연습장,경기도 고양시 일산동구 성현로659번길 224,410530.0,10261,126.845397473325,37.6959351907441
케이투당구장,예술·스포츠,스포츠 서비스,당구장,경기도 시흥시 옥구상가1길 23,429864.0,15040,126.72162024239,37.3531659176749
원당구장,예술·스포츠,스포츠 서비스,당구장,경기도 광주시 이배재로 472,464100.0,12765,127.208269199096,37.4319782708631
우주당구장,예술·스포츠,스포츠 서비스,당구장,경기도 수원시 장안구 서부로2126번길 17,440825.0,16417,126.972852279002,37.2980317918887
머슬팩토리,예술·스포츠,스포츠 서비스,헬스장,경기도 안성시 대덕면 대학6길 26,456831.0,17546,127.225519044513,37.0032012590386
더블유짐,예술·스포츠,스포츠 서비스,헬스장,경기도 안산시 상록구 영화6길 1,426825.0,15632,126.849577244316,37.2807295013161
커브스인덕원클럽,예술·스포츠,스포츠 서비스,헬스장,경기도 안양시 동안구 흥안대로456번길 46,431070.0,14062,126.978306200833,37.3936952361702
스타휘트니스,예술·스포츠,스포츠 서비스,헬스장,경기도 동두천시 지행로 60,483010.0,11350,127.053819287249,37.8920733694945
에이스골프,예술·스포츠,스포츠 서비스,골프 연습장,경기도 안산시 단원구 광덕대로 138,425906.0,15477,126.830615867731,37.3086990899582
헤라스포츠센터,예술·스포츠,스포츠 서비스,헬스장,경기도 포천시 일동면 화동로 1034,487851.0,11117,127.316959013558,37.955868795018
상현골프클럽,예술·스포츠,스포츠 서비스,골프 연습장,경기도 용인시 수지구 수지로 98,448822.0,16858,127.077215653679,37.3110116638463
럭키짐,예술·스포츠,스포츠 서비스,헬스장,경기도 고양시 덕양구 화정로 47,412737.0,10497,126.831429674682,37.6351719930629
피닉스스포츠센터,예술·스포츠,스포츠 서비스,종합 스포츠시설,경기도 평택시 송탄로 364,459110.0,17762,127.058331444591,37.076109007395
극동비젼스크린,예술·스포츠,스포츠 서비스,골프 연습장,경기도 안산시 단원구 초지동로 7,425856.0,15453,126.81621039626,37.3043165881872
아우디스크린골프,예술·스포츠,스포츠 서비스,골프 연습장,경기도 평택시 현신7길 19,450130.0,17866,127.148889567836,36.9995015332256
아세로,예술·스포츠,스포츠 서비스,헬스장,경기도 부천시 원미구 조마루로 2,420032.0,14592,126.744270472016,37.5000554613061
도약화성주,예술·스포츠,스포츠 서비스,볼링장,경기도 화성시 효행로 287,445310.0,18337,126.974355324414,37.2227319887166
청뜰21탁구문화센터,예술·스포츠,스포츠 서비스,탁구장,경기도 하남시 청뜰로 23,465170.0,12984,127.182969287988,37.5470065921646
산본스크린골프,예술·스포츠,스포츠 서비스,골프 연습장,경기도 군포시 번영로 497,435805.0,15865,126.932296560143,37.3583216270428
월산스크린골프,예술·스포츠,스포츠 서비스,골프 연습장,경기도 남양주시 화도읍 경춘로 2224,472844.0,12190,127.334454485075,37.655225572721
오환균탁구클럽,예술·스포츠,스포츠 서비스,탁구장,경기도 성남시 분당구 불정로 266,463865.0,13601,127.127689667566,37.3670931331445
더스크린골프,예술·스포츠,스포츠 서비스,골프 연습장,경기도 수원시 장안구 정조로 1042,440806.0,16305,127.006383826037,37.2993051951934
파인골프,예술·스포츠,스포츠 서비스,골프 연습장,경기도 하남시 덕산로 16,465805.0,12980,127.199927055615,37.5324279702751
프라이드핏,예술·스포츠,스포츠 서비스,헬스장,경기도 광명시 하안로287번길 22,423848.0,14305,126.878852944496,37.4613736020749
베네핏,예술·스포츠,스포츠 서비스,헬스장,경기도 성남시 분당구 백현로101번길 17,463825.0,13595,127.112510214829,37.377479346088
훼미리스크린골프,예술·스포츠,스포츠 서비스,골프 연습장,경기도 수원시 팔달구 경수대로 567,442832.0,16471,127.029981424946,37.2765683689288
１００４당구장천사,예술·스포츠,스포츠 서비스,당구장,경기도 용인시 수지구 대지로 18,448160.0,16873,127.111960625077,37.3267339557272
하늘당구장,예술·스포츠,스포츠 서비스,당구장,경기도 고양시 일산동구 하늘마을1로 14,410315.0,10311,126.787063291691,37.675013713721
차다풋살파크칼라힐지점,예술·스포츠,스포츠 서비스,스쿼시/라켓볼장,경기도 안양시 동안구 시민대로 312,431828.0,14065,126.964889487967,37.3951156287457
라이노볼링센터,예술·스포츠,스포츠 서비스,볼링장,경기도 시흥시 서울대학로264번길 26-32,,15011,126.72773432376,37.3666054177899
태영스크린,예술·스포츠,스포츠 서비스,골프 연습장,경기도 안성시 중앙로302번길 13,456240.0,17578,127.260505437281,37.0100318926162
헬스매니아,예술·스포츠,스포츠 서비스,헬스장,경기도 의정부시 체육로 90,480826.0,11606,127.031593149372,37.7579470560074
부강스크린,예술·스포츠,스포츠 서비스,골프 연습장,경기도 용인시 처인구 경안천로 232,449923.0,17148,127.219403808691,37.2515091419786
쭌당구클럽,예술·스포츠,스포츠 서비스,당구장,경기도 오산시 궐동로 57,447140.0,18120,127.060420017458,37.15713168202
로하스휘트니스,예술·스포츠,스포츠 서비스,헬스장,경기도 하남시 미사강변중앙로 180,465150.0,12913,127.190829625758,37.5630679267757
마장스크린골프,예술·스포츠,스포츠 서비스,골프 연습장,경기도 이천시 마장면 억만리로22번길 10,467811.0,17386,127.359594640392,37.2573024607514
고암골프용품점,예술·스포츠,스포츠 서비스,골프 연습장,경기도 양주시 회천남로 294,482010.0,11458,127.069884127025,37.8208176945217
이룸씨앤아이,예술·스포츠,스포츠 서비스,골프 연습장,경기도 성남시 분당구 백현로 97,463825.0,13595,127.111402797803,37.3768406670534
아지트당구클럽,예술·스포츠,스포츠 서비스,당구장,경기도 남양주시 화도읍 맷돌로 136,472845.0,12175,127.30536330737,37.6577821575746
잘마자당구장,예술·스포츠,스포츠 서비스,당구장,경기도 의정부시 승지로 13,480861.0,11808,127.090681525567,37.7383293631009
마스터골프피팅,예술·스포츠,스포츠 서비스,골프 연습장,경기도 안산시 단원구 광덕1로 276,425906.0,15481,126.840321052363,37.3067212964833
누아르피트니스라운지,예술·스포츠,스포츠 서비스,헬스장,경기도 성남시 수정구 위례서일로 34,461210.0,13646,127.139486359528,37.4643987960268
배팅클럽,예술·스포츠,스포츠 서비스,기타 스포츠시설 운영업,경기도 오산시 경기대로636번길 53,447220.0,18112,127.056735360545,37.1827144943247
비오엠,예술·스포츠,스포츠 서비스,헬스장,경기도 안양시 동안구 평촌대로217번길 15,431812.0,14072,126.955021922493,37.3906342056822
마송스크린골프,예술·스포츠,스포츠 서비스,골프 연습장,경기도 김포시 통진읍 담터로 85-26,415867.0,10016,126.599037056754,37.6949854507515
제이케이제이헬스,예술·스포츠,스포츠 서비스,헬스장,경기도 고양시 일산동구 일산로 206,410709.0,10417,126.791223037968,37.6549112912869
인필드,예술·스포츠,스포츠 서비스,골프 연습장,경기도 시흥시 정왕대로 184,429452.0,15036,126.734417024225,37.3474738222945
메타짐,예술·스포츠,스포츠 서비스,헬스장,경기도 성남시 수정구 수정로 140,461804.0,13327,127.135704031424,37.4417967931434
스포츠라인클라이밍,예술·스포츠,스포츠 서비스,헬스장,경기도 고양시 일산서구 경의로 805,411808.0,10237,126.758972752666,37.6894293315344
와니엘배팅센터광주,예술·스포츠,스포츠 서비스,테니스장,경기도 광주시 진토길 35-19,464020.0,12770,127.211310499258,37.3803895444846
씨씨점핑클럽,예술·스포츠,스포츠 서비스,헬스장,경기도 남양주시 와부읍 덕소로 72,472901.0,12210,127.211292708729,37.5868553353333
고담골프존,예술·스포츠,스포츠 서비스,골프 연습장,경기도 이천시 대산로288번길 107,467808.0,17336,127.473651288105,37.2503415852616
다함께야구왕모란점,예술·스포츠,스포츠 서비스,골프 연습장,경기도 성남시 중원구 광명로 21,462827.0,13355,127.131418183147,37.4335753689327
제이포에버,예술·스포츠,스포츠 서비스,골프 연습장,경기도 평택시 만세로 1760,450804.0,17846,127.108563067099,37.0109169102817
행신당구장,예술·스포츠,스포츠 서비스,당구장,경기도 고양시 덕양구 충장로 7,412825.0,10523,126.83368696415,37.6136055888518
굿샷스크린골프,예술·스포츠,스포츠 서비스,골프 연습장,경기도 수원시 팔달구 장다리로 276,442832.0,16481,127.028221482657,37.2739647947496
노블하우스,예술·스포츠,스포츠 서비스,당구장,경기도 오산시 오산로212번길 17,447804.0,18141,127.070462609032,37.1457908127432
신성실내수영장,예술·스포츠,스포츠 서비스,수영장,경기도 안양시 만안구 소곡로 93,430856.0,14090,126.918836545868,37.3840284271632
부발스크린골프,예술·스포츠,스포츠 서비스,골프 연습장,경기도 이천시 부발읍 죽당로 22-1,467863.0,17321,127.494624104831,37.2843058559688
짐오브선셋,예술·스포츠,스포츠 서비스,헬스장,경기도 수원시 영통구 영통로200번길 132,443400.0,16693,127.063701005229,37.2435137935509
월드스포션감골볼링장,예술·스포츠,스포츠 서비스,볼링장,경기도 안산시 상록구 감골1로 27,426751.0,15624,126.852506345176,37.2878784206408
원탁구클럽,예술·스포츠,스포츠 서비스,탁구장,경기도 군포시 공단로 39,435012.0,15850,126.949380925725,37.3492027541815
나이스휘트니스,예술·스포츠,스포츠 서비스,헬스장,경기도 안산시 상록구 성포로 30,426837.0,15296,126.844607264748,37.3232429461656
동탄골프랜드,예술·스포츠,스포츠 서비스,골프 연습장,경기도 화성시 서동탄로 7-25,445390.0,18416,127.046657457857,37.202848414299
세븐당구장,예술·스포츠,스포츠 서비스,당구장,경기도 시흥시 연성로 93,429270.0,14977,126.813864735376,37.3909828187405
LG당구클럽엘쥐,예술·스포츠,스포츠 서비스,당구장,경기도 안양시 동안구 평촌대로 386,431824.0,13935,126.950122641781,37.4051567095782
다짐,예술·스포츠,스포츠 서비스,헬스장,경기도 안산시 상록구 성호로 30,426860.0,15326,126.868279820072,37.3091344491979
스포츠맨당구클럽,예술·스포츠,스포츠 서비스,당구장,경기도 남양주시 화도읍 묵현로 13,472846.0,12168,127.289360484133,37.6575522043823
그린스포츠,예술·스포츠,스포츠 서비스,골프 연습장,경기도 오산시 대호로 139,447140.0,18123,127.053894494373,37.1626763354048
753탁구,예술·스포츠,스포츠 서비스,테니스장,경기도 광명시 도덕로 17,423818.0,14281,126.849869567129,37.4680979158434
골프잘가르치는연습장,예술·스포츠,스포츠 서비스,골프 연습장,경기도 부천시 원미구 부일로 702,420834.0,14673,126.807945758375,37.4844986391018
당구치는날,예술·스포츠,스포츠 서비스,당구장,경기도 광명시 오리로 947,423858.0,14263,126.85776334546,37.4781899774766
원희당구클럽,예술·스포츠,스포츠 서비스,당구장,경기도 화성시 삼성1로5길 6,445170.0,18449,127.072688741051,37.225379562407
원스포츠컴퍼니,예술·스포츠,스포츠 서비스,헬스장,경기도 고양시 덕양구 호국로716번길 6-1,412808.0,10469,126.832289413052,37.6508683465088
엠프로짐,예술·스포츠,스포츠 서비스,헬스장,경기도 양평군 강상면 강남로 1020,476911.0,12572,127.485013605514,37.480199373898
유니온골프랜드,예술·스포츠,스포츠 서비스,골프 연습장,경기도 용인시 처인구 백옥대로1191번길 119,449935.0,17043,127.203039179407,37.2480062459573
경희야구장,예술·스포츠,스포츠 서비스,기타 스포츠시설 운영업,경기도 용인시 기흥구 덕영대로 1700,446906.0,17104,127.07707170949,37.2473082551678
하이필드엠,예술·스포츠,스포츠 서비스,헬스장,경기도 안양시 동안구 시민대로327번길 7,431062.0,14055,126.966119804141,37.3965396024215
삼화종합개발주,예술·스포츠,스포츠 서비스,골프 연습장,경기도 파주시 책향기숲길 77,413100.0,10885,126.716100874482,37.7202823020494
중앙볼링센터,예술·스포츠,스포츠 서비스,볼링장,경기도 안산시 단원구 고잔2길 41,425868.0,15360,126.835649293175,37.3179417821083
위너스골프존,예술·스포츠,스포츠 서비스,골프 연습장,경기도 용인시 수지구 광교중앙로 313,448130.0,16944,127.068980263567,37.2980508453861
JUN당구클럽,예술·스포츠,스포츠 서비스,당구장,경기도 이천시 설성면 설장로 13-1,467881.0,17411,127.520634672642,37.1328285083637
클라임바운스,예술·스포츠,스포츠 서비스,기타 스포츠시설 운영업,경기도 수원시 영통구 덕영대로 1566,443813.0,16693,127.061899041333,37.2451276197835
더72,예술·스포츠,스포츠 서비스,골프 연습장,경기도 오산시 경기대로 198,447805.0,18144,127.073881041208,37.1423016280895
시크릿가든,예술·스포츠,스포츠 서비스,골프 연습장,경기도 파주시 탄현면 엘씨디로241번길 50-3,413843.0,10845,126.757128726878,37.8097135017863
최건웅트레이닝센터,예술·스포츠,스포츠 서비스,헬스장,경기도 오산시 대원로 57,447060.0,18139,127.074763190132,37.1465901214844
스카이스크린골프,예술·스포츠,스포츠 서비스,골프 연습장,경기도 평택시 현덕면 인광4길 3,451813.0,17946,126.923036094588,36.9742044415054
유당구장,예술·스포츠,스포츠 서비스,당구장,경기도 시흥시 서울대학로278번길 34,,15011,126.728947775355,37.3682030167625
뉴MCM휘트니스,예술·스포츠,스포츠 서비스,헬스장,경기도 수원시 팔달구 중부대로223번길 4,442816.0,16498,127.040963477914,37.276132578881
원당구클럽,예술·스포츠,스포츠 서비스,당구장,경기도 의왕시 오전로 209,437818.0,16053,126.967321814648,37.3592014750452
지스타넷,예술·스포츠,스포츠 서비스,골프 연습장,경기도 평택시 진위면 야막길 108-108,451861.0,17705,127.056437908122,37.1310209166081
에브리바디점핑,예술·스포츠,스포츠 서비스,헬스장,경기도 광명시 광복로 68,423829.0,14209,126.865938976924,37.489930659516
24시당구장,예술·스포츠,스포츠 서비스,당구장,경기도 평택시 중앙2로 71,450830.0,17908,127.09494282484,36.991149839667
불스아이양궁카페,예술·스포츠,스포츠 서비스,스쿼시/라켓볼장,경기도 의정부시 오목로225번길 135,480090.0,11813,127.095149481011,37.7456146786373
다함께야구왕,예술·스포츠,스포츠 서비스,기타 스포츠시설 운영업,경기도 고양시 일산동구 고봉로 26-32,410837.0,10364,126.766061421132,37.6633152673891
허리우드당구클럽,예술·스포츠,스포츠 서비스,당구장,경기도 광주시 경안로 13-3,464801.0,12758,127.259510652323,37.409603771402
바이칼토탈휘트니스,예술·스포츠,스포츠 서비스,헬스장,경기도 성남시 분당구 장미로 198,463836.0,13503,127.142982000125,37.4124330946225
은아줌바휘트니스,예술·스포츠,스포츠 서비스,헬스장,경기도 안양시 만안구 병목안로 87,430019.0,14020,126.912930228654,37.3945301516167
탑890당구클럽,예술·스포츠,스포츠 서비스,당구장,경기도 파주시 문산읍 방촌로 1719-62,413902.0,10816,126.783726924992,37.8672461173314
세교탁구클럽,예술·스포츠,스포츠 서비스,탁구장,경기도 평택시 평택로 161,450819.0,17828,127.078753237441,36.9995417546569
금문실내테니스장,예술·스포츠,스포츠 서비스,테니스장,경기도 고양시 덕양구 중앙로46번길 18,412160.0,10539,126.880731927739,37.5947056898947
임진강다이빙리조트,예술·스포츠,스포츠 서비스,당구장,경기도 연천군 군남면 청정로2194번길 168-1,486823.0,11008,127.020912446655,38.0317287913081
에이스탁구클럽,예술·스포츠,스포츠 서비스,탁구장,경기도 안성시 고수2로 27,456705.0,17572,127.257940285962,37.015687253597
뽀빠이당구장,예술·스포츠,스포츠 서비스,당구장,경기도 파주시 탄현면 성동로 17,413841.0,10862,126.686736718635,37.7792301182718
광명행복골프훈련소,예술·스포츠,스포츠 서비스,골프 연습장,경기도 광명시 새빛공원로 67,423090.0,14348,126.888386922471,37.4196750177163
프로볼링장,예술·스포츠,스포츠 서비스,볼링장,경기도 성남시 분당구 성남대로331번길 13,463867.0,13558,127.106317082166,37.3652851920975
네이처짐,예술·스포츠,스포츠 서비스,헬스장,경기도 시흥시 은계번영길 23,429060.0,14922,126.803919971166,37.4371258924037
쉐빌로뜨당구클럽,예술·스포츠,스포츠 서비스,당구장,경기도 김포시 김포한강8로162번길 10,415090.0,10068,126.643968270066,37.6363049248549
영당구장,예술·스포츠,스포츠 서비스,당구장,경기도 용인시 처인구 양지면 양지로 145,449823.0,17158,127.284468604677,37.2347464727384
휘트니스캠프,예술·스포츠,스포츠 서비스,헬스장,경기도 용인시 수지구 현암로 82,448809.0,16880,127.118398986805,37.3312508677964
K골프존,예술·스포츠,스포츠 서비스,골프 연습장,경기도 광명시 기아로 56,423052.0,14325,126.885854291654,37.4359629812237
캐롬빌리지당구장,예술·스포츠,스포츠 서비스,당구장,경기도 하남시 서하남로451번길 47,465060.0,13016,127.191667814312,37.5235307683111
로커스당구장,예술·스포츠,스포츠 서비스,당구장,경기도 파주시 청석로 262,413100.0,10874,126.718305526897,37.7251528244305
플레이락펍,예술·스포츠,스포츠 서비스,볼링장,경기도 수원시 팔달구 인계로108번길 49,442834.0,16489,127.028883506804,37.2655759409401
위례그린존스크린골프,예술·스포츠,스포츠 서비스,골프 연습장,경기도 성남시 수정구 위례서일로 22,461210.0,13647,127.13824389645,37.4649048221346
짐제이와이피,예술·스포츠,스포츠 서비스,헬스장,경기도 고양시 일산동구 호수로 340-38,410909.0,10449,126.788809818921,37.6386983277823
힛더핏,예술·스포츠,스포츠 서비스,헬스장,경기도 안양시 만안구 안양로 343,430838.0,14006,126.918410551683,37.4020215480205
당구나라,예술·스포츠,스포츠 서비스,당구장,경기도 의정부시 추동로19번길 7,480833.0,11740,127.057637213322,37.7435036954874
중동탁구교실,예술·스포츠,스포츠 서비스,탁구장,경기도 부천시 원미구 석천로178번길 15,420852.0,14547,126.763621115645,37.5033123500676
더블에잇2,예술·스포츠,스포츠 서비스,헬스장,경기도 고양시 일산서구 하이파크2로 40,411809.0,10234,126.753578213517,37.6990495975442
빌리어즈아트존,예술·스포츠,스포츠 서비스,당구장,경기도 성남시 중원구 산성대로 558,462831.0,13152,127.166469799516,37.4601020832472
킴브로짐헬스PT,예술·스포츠,스포츠 서비스,헬스장,경기도 이천시 안흥로 72,467110.0,17359,127.45504443183,37.2844466078584
리얼야구존오산,예술·스포츠,스포츠 서비스,기타 스포츠시설 운영업,경기도 오산시 성호대로 130,447060.0,18139,127.07580063236,37.1484726773736
뇌졸중엔스트레칭,예술·스포츠,스포츠 서비스,테니스장,경기도 성남시 분당구 황새울로 234,463873.0,13595,127.114240780046,37.3795320223225
제이빌리어드,예술·스포츠,스포츠 서비스,당구장,경기도 용인시 처인구 명지로40번길 4,449933.0,17055,127.188100655126,37.2327041520282
휴리조트테니스장,예술·스포츠,스포츠 서비스,테니스장,경기도 양주시 만송로366번길 215-29,482080.0,11494,127.09991113574,37.785000935573
렛츠골프아카데미,예술·스포츠,스포츠 서비스,골프 연습장,경기도 광명시 소하로109번길 24,423051.0,14316,126.885497026534,37.4479641491368
굿포유,예술·스포츠,스포츠 서비스,헬스장,경기도 남양주시 별내면 청학로중앙길 13-23,472811.0,12084,127.118553781865,37.7081761402663
여월탁구클럽,예술·스포츠,스포츠 서비스,탁구장,경기도 부천시 오정구 까치로 86,421825.0,14475,126.806761551473,37.5140586788567
옵티머스당구클럽천천점,예술·스포츠,스포츠 서비스,당구장,경기도 수원시 장안구 만석로19번길 41-9,440303.0,16329,126.98265372084,37.2967631719636
중앙당구장,예술·스포츠,스포츠 서비스,당구장,경기도 여주시 산북면 상품로 65,469892.0,12603,127.441373974301,37.3995770452518
프렌즈스크린브레인시티,예술·스포츠,스포츠 서비스,골프 연습장,경기도 평택시 도일유통길 13-57,459090.0,17725,127.099274666593,37.0397775658029
쓰리업샵,예술·스포츠,스포츠 서비스,헬스장,경기도 고양시 일산서구 중앙로 1471,411750.0,10379,126.756161979527,37.6718184743747
텐텐볼링장,예술·스포츠,스포츠 서비스,볼링장,경기도 파주시 청암로17번길 61,413110.0,10892,126.734503423427,37.7283347976039
원바디YJ짐,예술·스포츠,스포츠 서비스,헬스장,경기도 양평군 양평읍 남북로 16,476804.0,12560,127.501172445266,37.4839972259724
오늘도PT,예술·스포츠,스포츠 서비스,헬스장,경기도 화성시 동탄기흥로 447-16,445150.0,18479,127.091871024359,37.2011730547456
피트니스공간,예술·스포츠,스포츠 서비스,헬스장,경기도 고양시 일산동구 일산로 38,410910.0,10449,126.787293929537,37.641858055152
썬골프존,예술·스포츠,스포츠 서비스,골프 연습장,경기도 하남시 초이로 46,465220.0,12986,127.171489298242,37.5347161786293
육체발전소,예술·스포츠,스포츠 서비스,헬스장,경기도 화성시 효행로 1251,445330.0,18396,127.058814592124,37.2209270757338
갤럭시당구장,예술·스포츠,스포츠 서비스,당구장,경기도 성남시 중원구 성남대로1147번길 6-1,462829.0,13376,127.128229455786,37.432155266126
늘푸른골프,예술·스포츠,스포츠 서비스,골프 연습장,경기도 성남시 분당구 판교로 475,463840.0,13521,127.126716087777,37.4057300421439
라온탁구장,예술·스포츠,스포츠 서비스,탁구장,경기도 오산시 운천로 39,447805.0,18140,127.074222324162,37.1460047724635
송하상가,예술·스포츠,스포츠 서비스,당구장,경기도 파주시 월롱면 옥돌내길 113,413811.0,10844,126.776208626904,37.8128776133754
광주헬스오짐,예술·스포츠,스포츠 서비스,헬스장,경기도 광주시 중앙로 110,464801.0,12758,127.258561944725,37.4096328804771
파이브피티고읍점,예술·스포츠,스포츠 서비스,헬스장,경기도 양주시 고덕로 243,482020.0,11459,127.067743997257,37.8030520490469
에스에스당구장,예술·스포츠,스포츠 서비스,당구장,경기도 화성시 서신면 바다뜰길 90-1,445881.0,18555,126.704952046767,37.1675654422593
탑골프아카데미,예술·스포츠,스포츠 서비스,골프 연습장,경기도 수원시 권선구 금호로 196,441100.0,16603,126.971597930183,37.274460323883
에덴휘트니스,예술·스포츠,스포츠 서비스,헬스장,경기도 파주시 광탄면 혜음로1141번길 3,413852.0,10948,126.845862916119,37.7832126308757
에이스당구장,예술·스포츠,스포츠 서비스,당구장,경기도 수원시 팔달구 아주로 9,442820.0,16498,127.043714468229,37.2757801892833
ESPN당구클럽,예술·스포츠,스포츠 서비스,당구장,경기도 포천시 일동면 화동로1051번길 7,487851.0,11116,127.316840392469,37.9573916909117
성남제일탁구클럽,예술·스포츠,스포츠 서비스,탁구장,경기도 성남시 수정구 산성대로 373,461801.0,13148,127.156482034412,37.4457626024217
한솔당구클럽,예술·스포츠,스포츠 서비스,당구장,경기도 의정부시 부용로95번길 10,480865.0,11757,127.068638747257,37.751462360327
프렌즈스크린,예술·스포츠,스포츠 서비스,골프 연습장,경기도 평택시 고덕면 안재홍로 251-5,451842.0,17789,127.037537311473,37.0744143870183
남도,예술·스포츠,스포츠 서비스,골프 연습장,경기도 오산시 오산로 123-9,447802.0,18137,127.067799075625,37.1378179796245
퍼펙트당구장,예술·스포츠,스포츠 서비스,당구장,경기도 군포시 산본로323번길 7-1,435804.0,15865,126.932950475066,37.3591869859505
홀인원,예술·스포츠,스포츠 서비스,골프 연습장,경기도 용인시 수지구 현암로 128,448808.0,16880,127.123499554291,37.3314799219957
루트스포츠,예술·스포츠,스포츠 서비스,기타 스포츠시설 운영업,경기도 하남시 신우실로 83,465190.0,12995,127.163875408567,37.5091115080333
오케이골프존,예술·스포츠,스포츠 서비스,골프 연습장,경기도 화성시 효행로 540,445380.0,18325,126.992046971806,37.2057857520398
범휘트니스,예술·스포츠,스포츠 서비스,헬스장,경기도 고양시 일산서구 산현로92번길 60,411860.0,10347,126.77082059805,37.6894259222885
안성승마클럽,예술·스포츠,스포츠 서비스,당구장,경기도 안성시 양성면 천덕산로 917,456931.0,17502,127.179092586793,37.0638417117393
요기라운지,예술·스포츠,스포츠 서비스,기타 스포츠시설 운영업,경기도 군포시 고산로 695,435849.0,15802,126.935275881042,37.3721900935627
그린파크스크린골프,예술·스포츠,스포츠 서비스,골프 연습장,경기도 고양시 덕양구 화신로 267,412827.0,10503,126.831576140285,37.6305141108138
빅볼당구장,예술·스포츠,스포츠 서비스,당구장,경기도 안양시 동안구 인덕원로24번길 73,431846.0,13951,126.97558289957,37.3989206325221
OK스크린골프,예술·스포츠,스포츠 서비스,골프 연습장,경기도 성남시 중원구 산성대로 386,462805.0,13179,127.158065390549,37.4463551643971
유성탁구장,예술·스포츠,스포츠 서비스,탁구장,경기도 군포시 군포로556번길 2,435814.0,15840,126.947096654669,37.3555269753601
골프존GDR골프아카데미,예술·스포츠,스포츠 서비스,골프 연습장,경기도 성남시 분당구 야탑로81번길 10,463828.0,13497,127.1282153015,37.4106029417495
어썸바디휘트니스,예술·스포츠,스포츠 서비스,헬스장,경기도 안산시 상록구 예술광장로 29,426853.0,15288,126.847247443923,37.3287697091491
스마트골프아카데미,예술·스포츠,스포츠 서비스,골프 연습장,경기도 의정부시 오목로225번길 95,480090.0,11813,127.095264328987,37.7466957476257
위즈업,예술·스포츠,스포츠 서비스,헬스장,경기도 용인시 기흥구 새천년로 20,446907.0,16959,127.111419911267,37.2890982335978
은행당구클럽,예술·스포츠,스포츠 서비스,당구장,경기도 부천시 오정구 지양로158번길 9,421802.0,14469,126.825075442297,37.5232053625009
퍼스트스크린,예술·스포츠,스포츠 서비스,골프 연습장,경기도 오산시 잔다리안길 20,447240.0,18105,127.039463107053,37.1882179358409
마당구클럽,예술·스포츠,스포츠 서비스,당구장,경기도 이천시 부발읍 대산로288번길 96,467864.0,17331,127.47490306486,37.2504446956303
민락골프아카데미,예술·스포츠,스포츠 서비스,골프 연습장,경기도 의정부시 용현로 163,480861.0,11805,127.094292125546,37.7405789531184
웰빙헬스,예술·스포츠,스포츠 서비스,헬스장,경기도 광주시 초월읍 현산로 91,464964.0,12734,127.291298552298,37.3957531615222
위너스스크린골프,예술·스포츠,스포츠 서비스,골프 연습장,경기도 남양주시 다산지금로163번안길 55,472070.0,12244,127.181497052388,37.5978429387601
곤지암궁골프존,예술·스포츠,스포츠 서비스,골프 연습장,경기도 광주시 곤지암읍 도척로 42,464937.0,12805,127.335569583537,37.3479447390464
길당구장,예술·스포츠,스포츠 서비스,당구장,경기도 광주시 역동로34번길 31,464807.0,12759,127.257312934222,37.4077254478806
썬당구클럽,예술·스포츠,스포츠 서비스,당구장,경기도 수원시 영통구 영통로200번길 21,443816.0,16690,127.057852494269,37.24467914339
골프존파크금촌제우스점,예술·스포츠,스포츠 서비스,골프 연습장,경기도 파주시 월롱산로 68,413040.0,10849,126.763803132047,37.782103673661
피트니스레드문,예술·스포츠,스포츠 서비스,헬스장,경기도 군포시 광정로 80,435804.0,15865,126.929563101967,37.3602932810503
흰돌스크린골프,예술·스포츠,스포츠 서비스,골프 연습장,경기도 양주시 백석읍 중앙로 198,482835.0,11509,126.990201836109,37.7938813227182
테마스크린골프,예술·스포츠,스포츠 서비스,골프 연습장,경기도 남양주시 진건읍 진건오남로 55-21,472835.0,12138,127.177796067525,37.6557008582456
스타당구장,예술·스포츠,스포츠 서비스,당구장,경기도 동두천시 지행로 56,483010.0,11350,127.053375909268,37.8920735713679
오션스크린골프,예술·스포츠,스포츠 서비스,골프 연습장,경기도 의정부시 산단로 99,480838.0,11781,127.076994354534,37.7444927158694
스윔슐레삼송캠퍼스,예술·스포츠,스포츠 서비스,수영장,경기도 고양시 덕양구 원흥1로 46-12,412040.0,10563,126.86949248249,37.6504108195405
데일리테니스,예술·스포츠,스포츠 서비스,테니스장,경기도 수원시 팔달구 인계로 80,442833.0,16480,127.026223859116,37.2683787995838
크로스핏테디짐죽전,예술·스포츠,스포츠 서비스,헬스장,경기도 용인시 기흥구 보정로 117,446858.0,16898,127.114285764578,37.3198478433881
3949당구클럽,예술·스포츠,스포츠 서비스,당구장,경기도 안양시 동안구 경수대로 603,431838.0,14114,126.955719185355,37.3763171996636
썬골프존,예술·스포츠,스포츠 서비스,골프 연습장,경기도 이천시 장호원읍 서동대로 8769-11,467904.0,17421,127.609317628091,37.1162229893987
세븐당구장,예술·스포츠,스포츠 서비스,당구장,경기도 양평군 양평읍 양평시장길33번길 7,476802.0,12556,127.489526352218,37.4908576095829
스크린골프존,예술·스포츠,스포츠 서비스,골프 연습장,경기도 수원시 권선구 호매실로104번길 18,441450.0,16630,126.962474049598,37.2563648618763
한미스포츠클럽,예술·스포츠,스포츠 서비스,골프 연습장,경기도 양주시 고덕로329번길 59-30,482020.0,11480,127.075649900406,37.8058131827349
스타골프존,예술·스포츠,스포츠 서비스,골프 연습장,경기도 이천시 구만리로 303,467802.0,17350,127.464556289988,37.2798774713386
유-헬스피아,예술·스포츠,스포츠 서비스,헬스장,경기도 안양시 만안구 병목안로 292,430843.0,14026,126.905573656016,37.380324383364
펀클라임,예술·스포츠,스포츠 서비스,테니스장,경기도 안양시 동안구 시민대로327번길 6,431804.0,14055,126.966966761455,37.3966479646866
스타스크린골프,예술·스포츠,스포츠 서비스,골프 연습장,경기도 이천시 구만리로 226,467802.0,17378,127.457842583781,37.2753984668892
K2골프존,예술·스포츠,스포츠 서비스,골프 연습장,경기도 부천시 소사구 은성로 91,422812.0,14699,126.800869485441,37.4753507057746
뷔엠에이폴댄스이천,예술·스포츠,스포츠 서비스,테니스장,경기도 이천시 중리천로 57-1,467804.0,17369,127.4443629704,37.2801712446562
은하수골프존,예술·스포츠,스포츠 서비스,골프 연습장,경기도 안산시 단원구 선부광장1로 38,425829.0,15240,126.809394890434,37.3366348439012
해머하우스,예술·스포츠,스포츠 서비스,헬스장,경기도 남양주시 별내중앙로 10,472501.0,12113,127.127291142669,37.644846259156
제니핏,예술·스포츠,스포츠 서비스,헬스장,경기도 군포시 번영로 505,435805.0,15865,126.933210445594,37.35879068092
이현주탁구클럽,예술·스포츠,스포츠 서비스,탁구장,경기도 안산시 단원구 고잔2길 38,425868.0,15360,126.835469750207,37.3175000264498
오픈짐,예술·스포츠,스포츠 서비스,헬스장,경기도 김포시 김포대로 847,415803.0,10110,126.719655360274,37.6196966863617
플레이볼문산,예술·스포츠,스포츠 서비스,볼링장,경기도 파주시 문산읍 방촌로 1695-21,413902.0,10816,126.781915571068,37.8648642723783
모던퍼스널트레이닝,예술·스포츠,스포츠 서비스,헬스장,경기도 성남시 분당구 돌마로90번길 4,463808.0,13627,127.111735162166,37.349719453998
스카이스포츠센타,예술·스포츠,스포츠 서비스,골프 연습장,경기도 부천시 원미구 상일로 100,420814.0,14598,126.753210735423,37.4912986919027
그린파크스크린골프,예술·스포츠,스포츠 서비스,골프 연습장,경기도 성남시 수정구 위례서일로 22,461210.0,13647,127.13824389645,37.4649048221346
더블유휘트니스,예술·스포츠,스포츠 서비스,헬스장,경기도 부천시 원미구 신흥로 190-1,420776.0,14549,126.777991142563,37.5009345501387
샤롭냐당구클럽,예술·스포츠,스포츠 서비스,당구장,경기도 안산시 상록구 학사4길 19,426896.0,15587,126.840380093524,37.3001348086865
우리동네BilliardClub,예술·스포츠,스포츠 서비스,당구장,경기도 동두천시 평화로 2307,483020.0,11356,127.057140232847,37.8937475635851
꿈마을골프스쿨,예술·스포츠,스포츠 서비스,골프 연습장,경기도 안양시 동안구 부림로 17,431713.0,14102,126.968891169546,37.3856920503156
오케이레포츠,예술·스포츠,스포츠 서비스,당구장,경기도 용인시 처인구 양지면 남평로 48,449821.0,17161,127.289430593138,37.229778708343
제이씨당구클럽,예술·스포츠,스포츠 서비스,당구장,경기도 고양시 덕양구 화중로130번길 32,412826.0,10477,126.833620560723,37.6383195378517
OK당구장,예술·스포츠,스포츠 서비스,당구장,경기도 가평군 조종면 현창로38번길 19,477834.0,12437,127.349177012765,37.8198433719812
썬당구클럽,예술·스포츠,스포츠 서비스,당구장,경기도 수원시 권선구 곡선로 58,441400.0,16671,127.030721342993,37.2383188980436
에비뉴스크린방,예술·스포츠,스포츠 서비스,골프 연습장,경기도 안양시 동안구 관악대로 103,431822.0,13924,126.935444698199,37.3991488073519
화오트짐,예술·스포츠,스포츠 서비스,헬스장,경기도 화성시 동탄중심상가1길 11,445160.0,18455,127.072372089499,37.200582866954
다음스포츠,예술·스포츠,스포츠 서비스,헬스장,경기도 수원시 장안구 서부로 2191,440824.0,16357,126.972602014406,37.3039155025816
일산SK클라이밍,예술·스포츠,스포츠 서비스,헬스장,경기도 고양시 일산동구 일산로286번길 13-5,410812.0,10412,126.786613638274,37.6618225720786
서정비전골프존,예술·스포츠,스포츠 서비스,골프 연습장,경기도 평택시 송탄로 271,459813.0,17772,127.058696316049,37.0680172071407
엘리트당구랜드,예술·스포츠,스포츠 서비스,당구장,경기도 의정부시 의정로 189,480815.0,11675,127.034210788017,37.7497475234972
N.B휘트니스클럽,예술·스포츠,스포츠 서비스,헬스장,경기도 동두천시 평화로 2285,483010.0,11350,127.055660868676,37.8918833144806
72쎄븐-투골프클럽,예술·스포츠,스포츠 서비스,골프 연습장,경기도 광명시 철산로 62,423838.0,14238,126.873061650591,37.4771622328054
월드당구장,예술·스포츠,스포츠 서비스,당구장,경기도 수원시 장안구 송원로 39,440806.0,16305,127.006778573466,37.2991700177243
유진스크린&유진상가,예술·스포츠,스포츠 서비스,골프 연습장,경기도 파주시 경의로 1747,413010.0,10855,126.769665889159,37.7657808325872
한성레포츠주,예술·스포츠,스포츠 서비스,골프 연습장,경기도 파주시 탄현면 얼음실로 132,413841.0,10858,126.707673874668,37.7894107065481
가산헬스,예술·스포츠,스포츠 서비스,헬스장,경기도 포천시 가산면 가산로 366,487814.0,11164,127.189651019723,37.8473179425994
리치스크린골프,예술·스포츠,스포츠 서비스,골프 연습장,경기도 남양주시 경춘로1350번길 35,472935.0,12219,127.243303179498,37.6503402300341
금정역점스포애니케이디스포츠,예술·스포츠,스포츠 서비스,헬스장,경기도 군포시 군포로 733,435825.0,15811,126.943349184494,37.3706805129611
민스클럽,예술·스포츠,스포츠 서비스,당구장,경기도 남양주시 경춘로 470,,12257,127.165205714529,37.6096788361931
비엠,예술·스포츠,스포츠 서비스,헬스장,경기도 성남시 분당구 분당로263번길 35,463819.0,13587,127.139788794484,37.3717467639648
유성골프사우나,예술·스포츠,스포츠 서비스,골프 연습장,경기도 화성시 봉담읍 삼천병마로 998-9,445906.0,18332,126.941226512617,37.1969861859738
리더스골프,예술·스포츠,스포츠 서비스,골프 연습장,경기도 군포시 금당로 39,435818.0,15858,126.939436263321,37.3509821181849
보라네탁구클럽,예술·스포츠,스포츠 서비스,탁구장,경기도 용인시 기흥구 사은로 116,446904.0,17079,127.117649380353,37.2556906388951
동아스크린골프,예술·스포츠,스포츠 서비스,골프 연습장,경기도 수원시 영통구 매영로345번길 95,443470.0,16703,127.073360263232,37.2555731851216
큐스포츠당구클럽,예술·스포츠,스포츠 서비스,당구장,경기도 구리시 안골로 51,471812.0,11927,127.136869780859,37.5976238209394
수석당구장,예술·스포츠,스포츠 서비스,당구장,경기도 화성시 정남면 세자로 283,445963.0,18516,126.979895752193,37.1921333740769
채플린당구장,예술·스포츠,스포츠 서비스,당구장,경기도 화성시 향남읍 31만세로 1115,445939.0,18593,126.908908890198,37.1332700301622
신하골프존,예술·스포츠,스포츠 서비스,골프 연습장,경기도 이천시 부발읍 경충대로 2198,467863.0,17331,127.482034568206,37.2587684726983
파주이글스크린,예술·스포츠,스포츠 서비스,골프 연습장,경기도 파주시 파주읍 돈유로 4-21,413863.0,10833,126.808075174826,37.8522604814095
남한산성W골프존,예술·스포츠,스포츠 서비스,골프 연습장,경기도 성남시 분당구 황새울로 337,463824.0,13590,127.122426321774,37.3862815081226
롤러Ace,예술·스포츠,스포츠 서비스,기타 스포츠시설 운영업,경기도 여주시 세종로 85,469102.0,12631,127.635596794104,37.2903454567163
키느,예술·스포츠,스포츠 서비스,골프 연습장,경기도 화성시 동탄대로23길 93,445130.0,18468,127.097157309363,37.212585147523
클래리티,예술·스포츠,스포츠 서비스,테니스장,경기도 성남시 분당구 황새울로 234,463873.0,13595,127.114240780046,37.3795320223225
에스케이스포츠클럽,예술·스포츠,스포츠 서비스,헬스장,경기도 용인시 기흥구 서그내로 22-1,446959.0,17103,127.073406536882,37.2451751080921
송운개발,예술·스포츠,스포츠 서비스,골프 연습장,경기도 용인시 처인구 지삼로 470,449060.0,17090,127.156360290725,37.2347055809629
펠로타당구장,예술·스포츠,스포츠 서비스,당구장,경기도 고양시 덕양구 은빛로 45,412826.0,10477,126.833020542641,37.6381114638628
브리앙뜨,예술·스포츠,스포츠 서비스,당구장,경기도 광주시 광남안로129번길 1,464020.0,12770,127.214959027678,37.3848880810187
알유스포츠,예술·스포츠,스포츠 서비스,종합 스포츠시설,경기도 광명시 서면로 79,423052.0,14323,126.884009224653,37.4380875811135
송전당구장,예술·스포츠,스포츠 서비스,당구장,경기도 용인시 처인구 이동읍 경기동로 712,449832.0,17136,127.198321856773,37.1380679334515
월드스포츠센터,예술·스포츠,스포츠 서비스,수영장,경기도 용인시 기흥구 구갈로 74,446569.0,16972,127.1117690041,37.2811327242304
제이엘실내테니스,예술·스포츠,스포츠 서비스,테니스장,경기도 고양시 일산서구 일현로 89,411840.0,10242,126.764420045603,37.6949452949989
골프존파크양촌팰리스,예술·스포츠,스포츠 서비스,골프 연습장,경기도 김포시 양촌읍 봉수대로 1850-55,415841.0,10069,126.631722932841,37.6336274640834
달라짐,예술·스포츠,스포츠 서비스,헬스장,경기도 수원시 장안구 경수대로 953,440805.0,16304,127.006113448095,37.3031886767273
베스트풋살장,예술·스포츠,스포츠 서비스,기타 스포츠시설 운영업,경기도 시흥시 평안상가3길 16,429858.0,15062,126.74945204257,37.3366672540154
골프존파크역동H,예술·스포츠,스포츠 서비스,골프 연습장,경기도 광주시 문화로 43,464060.0,12764,127.254386532918,37.4074344445222
제우스골프존,예술·스포츠,스포츠 서비스,골프 연습장,경기도 하남시 위례학암로 18,465240.0,13010,127.158379179697,37.4879724074056
퀸덤,예술·스포츠,스포츠 서비스,헬스장,경기도 평택시 용죽2로 32-27,450152.0,17870,127.12458889045,36.9922037268561
힐링점핑,예술·스포츠,스포츠 서비스,종합 스포츠시설,경기도 양주시 옥정동로4길 11,482130.0,11476,127.099667028685,37.8145526264377
아리테카카오스크린골프,예술·스포츠,스포츠 서비스,골프 연습장,경기도 시흥시 능곡번영길 33,429240.0,14999,126.806816950779,37.3694550841865
매버릭빌리어드,예술·스포츠,스포츠 서비스,당구장,경기도 가평군 가평읍 오리나무길 33,477804.0,12420,127.51415419447,37.8244822953704
프렌즈스크린고촌캐슬힐골프,예술·스포츠,스포츠 서비스,골프 연습장,경기도 김포시 고촌읍 수기로 109,415812.0,10130,126.763957822802,37.5938451726559
큐이디골프,예술·스포츠,스포츠 서비스,골프 연습장,경기도 용인시 수지구 현암로 113,448808.0,16875,127.122078590018,37.3319589432289
스트라이크존시흥대야구장,예술·스포츠,스포츠 서비스,기타 스포츠시설 운영업,경기도 시흥시 비둘기공원5길 23,429874.0,14912,126.790256036813,37.4422021738862
위더스포,예술·스포츠,스포츠 서비스,헬스장,경기도 수원시 팔달구 효원로 269,442834.0,16490,127.031215820742,37.262268524287
크로스핏메이트,예술·스포츠,스포츠 서비스,헬스장,경기도 성남시 분당구 황새울로 216,463875.0,13595,127.112805239219,37.3784611815564
온더영동탄역그란비아프렌즈아카데미,예술·스포츠,스포츠 서비스,골프 연습장,경기도 화성시 동탄대로 446,445140.0,18482,127.1000611062,37.1933903416549
매드포테니스,예술·스포츠,스포츠 서비스,테니스장,경기도 오산시 운암로 13-16,447060.0,18139,127.075416375969,37.1469230998207
큐원당구장,예술·스포츠,스포츠 서비스,당구장,경기도 의정부시 평화로 174,480856.0,11712,127.048536854254,37.7072977478218
아일랜드짐,예술·스포츠,스포츠 서비스,헬스장,경기도 수원시 영통구 인계로220번길 16,443806.0,16543,127.041148730547,37.2643198650313
태광스크린골프,예술·스포츠,스포츠 서비스,골프 연습장,경기도 용인시 기흥구 흥덕4로15번길 3-17,446908.0,16949,127.090559089985,37.2721224300698
라인점핑,예술·스포츠,스포츠 서비스,테니스장,경기도 광명시 광명로832번길 17,423017.0,14273,126.853567809179,37.4729770198773
남스짐월곶점,예술·스포츠,스포츠 서비스,헬스장,경기도 시흥시 월곶중앙로 49,429834.0,14963,126.739580842049,37.3881665290634
골드진접스크린,예술·스포츠,스포츠 서비스,골프 연습장,경기도 남양주시 진접읍 경복대로 414,472861.0,12051,127.211242562718,37.7331295401656
에이투짐,예술·스포츠,스포츠 서비스,헬스장,경기도 화성시 향남읍 상신하길로 74,445937.0,18616,126.896449631907,37.1008935766191
에이플러스당구장,예술·스포츠,스포츠 서비스,당구장,경기도 안성시 학자로 60-10,456310.0,17569,127.26660366448,37.0124242291523
좋은습관PTSTUDIO광교,예술·스포츠,스포츠 서비스,헬스장,경기도 수원시 영통구 도청로 95,443270.0,16509,127.047738034843,37.2908980718598
로얄테니스,예술·스포츠,스포츠 서비스,테니스장,경기도 용인시 기흥구 흥덕2로105번길 5,446908.0,16953,127.073617635163,37.2767925559714
능동탑점핑,예술·스포츠,스포츠 서비스,헬스장,경기도 화성시 여울로4길 32,445320.0,18422,127.055736059122,37.2173964527342
작당,예술·스포츠,스포츠 서비스,당구장,경기도 부천시 오정구 역곡로 479,421801.0,14416,126.815868424028,37.5272729022034
유앤미짐,예술·스포츠,스포츠 서비스,헬스장,경기도 고양시 덕양구 벽제관로 15,412801.0,10275,126.902545627407,37.7035554496643
드루와점핑다이어트,예술·스포츠,스포츠 서비스,헬스장,경기도 의왕시 내손로 14,437081.0,16036,126.9730812248,37.3834315087212
일죽당구클럽,예술·스포츠,스포츠 서비스,당구장,경기도 안성시 일죽면 송천길 94,456915.0,17529,127.477331461885,37.0937247210512
나도실내테니스,예술·스포츠,스포츠 서비스,테니스장,경기도 군포시 고산로 685,435849.0,15802,126.934531306304,37.3715589658731
머슬피치랩,예술·스포츠,스포츠 서비스,헬스장,경기도 부천시 원미구 신흥로 230,420849.0,14534,126.776273291914,37.5043461141028
해피당구장,예술·스포츠,스포츠 서비스,당구장,경기도 평택시 원평로39번길 9-2,450827.0,17922,127.084246633915,36.9891484960127
드림,예술·스포츠,스포츠 서비스,골프 연습장,경기도 성남시 분당구 매화로 44,463856.0,13504,127.134192185203,37.4114793077391
더피트니스케이,예술·스포츠,스포츠 서비스,헬스장,경기도 용인시 수지구 신수로783번길 19,448500.0,16826,127.100424852426,37.3402237354825
팀브래그브래그골프스튜디오,예술·스포츠,스포츠 서비스,골프 연습장,경기도 파주시 중앙로 328,413801.0,10930,126.77452614602,37.7648712487381
솔안당구장,예술·스포츠,스포츠 서비스,당구장,경기도 부천시 원미구 송내대로74번길 34,420816.0,14623,126.75596345241,37.4897727008255
필러,예술·스포츠,스포츠 서비스,골프 연습장,경기도 평택시 포승읍 포승향남로 230,451822.0,17951,126.857528884708,36.9915438430508
강현정피티,예술·스포츠,스포츠 서비스,헬스장,경기도 군포시 산본로323번길 13,435805.0,15865,126.93269112944,37.3588804893103
더블리치,예술·스포츠,스포츠 서비스,골프 연습장,경기도 군포시 번영로 504,435045.0,15862,126.933177189507,37.3581058811674
바디앤포스처,예술·스포츠,스포츠 서비스,테니스장,경기도 성남시 수정구 위례광장로 300,461210.0,13640,127.142702531257,37.4734771382073
디피짐,예술·스포츠,스포츠 서비스,헬스장,경기도 수원시 팔달구 화양로5번길 1,442863.0,16443,126.998872417573,37.2790680411205
리베라당구클럽,예술·스포츠,스포츠 서비스,당구장,경기도 화성시 동탄기흥로 255,,18487,127.092344722891,37.1831696513243
와이지배드민턴아카데미,예술·스포츠,스포츠 서비스,기타 스포츠시설 운영업,경기도 용인시 처인구 포곡읍 곡현로 89-22,449815.0,17022,127.218751426167,37.2948503250845
라인업PTSTUDIO,예술·스포츠,스포츠 서비스,헬스장,경기도 이천시 애련정로 49-1,467803.0,17372,127.454562280623,37.2774023904322
짐포미,예술·스포츠,스포츠 서비스,헬스장,경기도 안양시 만안구 덕천로152번길 25,430017.0,14084,126.938307150857,37.3928972436281
매직스윙골프아카데미,예술·스포츠,스포츠 서비스,골프 연습장,경기도 화성시 남양읍 남양성지로 39,445851.0,18258,126.807807924439,37.2063779831885
행복골프훈련소수원,예술·스포츠,스포츠 서비스,골프 연습장,경기도 수원시 팔달구 경수대로 485,442832.0,16481,127.027148714672,37.2694057783064
테이스트피트니스PT수원화서점,예술·스포츠,스포츠 서비스,헬스장,경기도 수원시 팔달구 동말로 84,442858.0,16441,127.003258694179,37.2786264920842
대복풋살파크,예술·스포츠,스포츠 서비스,기타 스포츠시설 운영업,경기도 구리시 코스모스길 129-42,471033.0,11961,127.145013349269,37.5810538685936
퍼펙트볼앤펍,예술·스포츠,스포츠 서비스,볼링장,경기도 용인시 처인구 금령로 86,449925.0,17051,127.205821847054,37.23508948099
갬블빌리아드클럽,예술·스포츠,스포츠 서비스,당구장,경기도 시흥시 중심상가로 39,429864.0,15040,126.72290809275,37.3528535823258
베르만짐위시티,예술·스포츠,스포츠 서비스,헬스장,경기도 고양시 일산동구 위시티로 24,410821.0,10324,126.808170137583,37.6749237946706
웰빙,예술·스포츠,스포츠 서비스,테니스장,경기도 안양시 동안구 엘에스로 48,431849.0,14120,126.954775684886,37.3681715714538
하이스크린골프,예술·스포츠,스포츠 서비스,골프 연습장,경기도 남양주시 화도읍 경춘로 2418,472844.0,12191,127.355715152871,37.660199842509
바디아트짐,예술·스포츠,스포츠 서비스,헬스장,경기도 남양주시 다산지금로 202,,12284,127.172217832858,37.5956404071921
라반휘트니스본오,예술·스포츠,스포츠 서비스,헬스장,경기도 안산시 상록구 오목로 71,426816.0,15554,126.865831452652,37.2903901488772
양촌모노베니체골프존파크,예술·스포츠,스포츠 서비스,골프 연습장,경기도 김포시 양촌읍 향동로 5,415823.0,10069,126.633316481451,37.6205771991092
부킹스크린골프,예술·스포츠,스포츠 서비스,골프 연습장,경기도 성남시 분당구 장미로86번길 6,463828.0,13506,127.130286775012,37.4131415507188
수영일기,예술·스포츠,스포츠 서비스,수영장,경기도 수원시 영통구 웰빙타운로36번길 46-221,443270.0,16223,127.054847324066,37.3125018417711
트래몬트짐,예술·스포츠,스포츠 서비스,헬스장,경기도 부천시 원미구 부일로191번길 30,420814.0,14598,126.751575438489,37.4899978168791
고양루프탑테니스,예술·스포츠,스포츠 서비스,테니스장,경기도 고양시 덕양구 삼원로2길 10,412080.0,10550,126.87776311443,37.6444281419807
해원스크린골프,예술·스포츠,스포츠 서비스,골프 연습장,경기도 시흥시 서울대학로278번길 70,,15011,126.73206482801,37.3678497094733
능서당구클럽,예술·스포츠,스포츠 서비스,당구장,경기도 여주시 세종대왕면 마장로 70,469811.0,12641,127.573060836712,37.2988550750834
머슬짐,예술·스포츠,스포츠 서비스,헬스장,경기도 시흥시 은행로167번길 3,429874.0,14914,126.798202704922,37.4454416358996
오렌지,예술·스포츠,스포츠 서비스,테니스장,경기도 고양시 덕양구 무원로54번길 64,412825.0,10524,126.832814380213,37.6188751319005
뉴스타당구장,예술·스포츠,스포츠 서비스,당구장,경기도 광명시 기아로 19,423826.0,14326,126.881875976467,37.4365717629583
황실당구장,예술·스포츠,스포츠 서비스,당구장,경기도 안성시 대덕면 대학10길 12,456831.0,17546,127.225963132425,37.0014072650519
프렌즈아카데미판교파미어스몰,예술·스포츠,스포츠 서비스,골프 연습장,경기도 성남시 수정구 창업로 17,461370.0,13449,127.097843745249,37.4121817303951
웨이크업바디,예술·스포츠,스포츠 서비스,헬스장,경기도 수원시 팔달구 효원로 269,442834.0,16490,127.031215820742,37.262268524287
원탑당구장,예술·스포츠,스포츠 서비스,당구장,경기도 파주시 한울로 63,413100.0,10902,126.738658942215,37.7111175345732
포천실내테니스장,예술·스포츠,스포츠 서비스,테니스장,경기도 포천시 가산면 정금로256번길 21,487813.0,11167,127.189279337062,37.8130192091077
파두스빅뱅당구클럽,예술·스포츠,스포츠 서비스,당구장,경기도 화성시 효행로 1020,445390.0,18404,127.039284267413,37.2125734258447
용당구클럽,예술·스포츠,스포츠 서비스,당구장,경기도 수원시 장안구 경수대로 1032,440855.0,16203,126.999368316953,37.3074056808102
샘골당구클럽,예술·스포츠,스포츠 서비스,당구장,경기도 화성시 봉담읍 샘마을길 41,445891.0,18316,126.951474783011,37.2170932695985
존케이지광교경기대점,예술·스포츠,스포츠 서비스,당구장,경기도 수원시 영통구 대학로 14,443270.0,16226,127.042306118313,37.2978291161511
앤티크짐,예술·스포츠,스포츠 서비스,헬스장,경기도 광명시 양지로 19,423090.0,14345,126.882615259251,37.4190116846553
문발스크린골프,예술·스포츠,스포츠 서비스,골프 연습장,경기도 파주시 교하로 917,413070.0,10880,126.705463862895,37.7283469071826
로얄스크린,예술·스포츠,스포츠 서비스,골프 연습장,경기도 용인시 처인구 모현읍 백옥대로 2206,449851.0,17036,127.244157179365,37.3215433102128
프로아마츄어당구장,예술·스포츠,스포츠 서비스,당구장,경기도 파주시 정담길 31,413803.0,10853,126.776917483766,37.76975902174
프롬빌리어드클럽,예술·스포츠,스포츠 서비스,당구장,경기도 동두천시 중앙로 134-12,483010.0,11346,127.053240224929,37.8931007111292
케어핏,예술·스포츠,스포츠 서비스,헬스장,경기도 수원시 영통구 도청로89번길 43,443270.0,16509,127.047218179165,37.2891592768147
진스크린골프,예술·스포츠,스포츠 서비스,골프 연습장,경기도 광주시 허산길 2,464891.0,12779,127.241549219959,37.380872262344
제이휘트니스,예술·스포츠,스포츠 서비스,헬스장,경기도 이천시 이섭대천로 1229,467804.0,17369,127.446561348843,37.2800998995315
펀휘트니스,예술·스포츠,스포츠 서비스,헬스장,경기도 수원시 권선구 장다리로 67,441878.0,16579,127.019884607994,37.2564592431007
로렌,예술·스포츠,스포츠 서비스,테니스장,경기도 이천시 마장면 지산로 267,467812.0,17390,127.342061826497,37.2189970631822
책임짐,예술·스포츠,스포츠 서비스,헬스장,경기도 구리시 건원대로 36,471841.0,11921,127.140483503752,37.6044220492583
안산골프존,예술·스포츠,스포츠 서비스,골프 연습장,경기도 안산시 상록구 상록수로 28,426815.0,15532,126.863002086025,37.3021184039333
보성볼링센타,예술·스포츠,스포츠 서비스,볼링장,경기도 용인시 기흥구 신구로64번길 12,446594.0,16971,127.110918020188,37.2775383775439
커브스화정클럽,예술·스포츠,스포츠 서비스,헬스장,경기도 고양시 덕양구 화신로 278,412742.0,10500,126.830555108516,37.6311523483678
레이크프리미엄골프아카데미,예술·스포츠,스포츠 서비스,골프 연습장,경기도 화성시 동탄순환대로 127-23,,18505,127.10726700722,37.1677580475961
스카이당구클럽,예술·스포츠,스포츠 서비스,당구장,경기도 화성시 동탄중심상가2길 35,445160.0,18453,127.073301394479,37.2064211073628
호휘트니스,예술·스포츠,스포츠 서비스,헬스장,경기도 이천시 부발읍 경충대로 2096-16,467866.0,17332,127.490616982423,37.2524169678468
진성당구장,예술·스포츠,스포츠 서비스,당구장,경기도 안산시 단원구 다리간로 18,425802.0,15459,126.823799695436,37.3147801259214
화성당구장,예술·스포츠,스포츠 서비스,당구장,경기도 안산시 단원구 선부로 183,425831.0,15217,126.815430234961,37.3419875175753
비앤비당구장,예술·스포츠,스포츠 서비스,당구장,경기도 용인시 처인구 원삼면 좌찬로 40,449871.0,17166,127.324621494246,37.2007549019661
가브리엘당구장,예술·스포츠,스포츠 서비스,당구장,경기도 의정부시 오목로225번길 129,480090.0,11813,127.094900059848,37.7457680443115
올데이휘트니스,예술·스포츠,스포츠 서비스,헬스장,경기도 하남시 감일백제로180번길 16,465190.0,12999,127.155312844365,37.5087987154223
운정탁구클럽,예술·스포츠,스포츠 서비스,탁구장,경기도 파주시 동패샘길 251-5,413835.0,10904,126.731972272442,37.7067238015374
링스골프스쿨,예술·스포츠,스포츠 서비스,골프 연습장,경기도 성남시 분당구 정자로76번길 13,463834.0,13612,127.113525818708,37.3621339104293
수원조원동점핑다이어트,예술·스포츠,스포츠 서비스,테니스장,경기도 수원시 장안구 경수대로 940,440202.0,16295,127.008053504295,37.3031435088024
스타스크린골프,예술·스포츠,스포츠 서비스,골프 연습장,경기도 안산시 상록구 화랑로 501,426837.0,15296,126.843845338942,37.3206920213449
티엠빌리어즈club,예술·스포츠,스포츠 서비스,당구장,경기도 화성시 동탄지성로 179,445390.0,18421,127.056103227509,37.2111429948887
아이인피티스튜디오,예술·스포츠,스포츠 서비스,헬스장,경기도 하남시 미사강변중앙로198번길 35,465150.0,12913,127.19168354017,37.5650307126317
OK골프존,예술·스포츠,스포츠 서비스,골프 연습장,경기도 고양시 일산서구 중앙로 1376,411742.0,10366,126.766625415045,37.6677942496231
레드스타필드골프아카데미,예술·스포츠,스포츠 서비스,골프 연습장,경기도 안산시 단원구 광덕대로 137,425807.0,15476,126.828923613544,37.3087957695343
진골프피팅,예술·스포츠,스포츠 서비스,골프 연습장,경기도 시흥시 진말로9번길 2,429842.0,15002,126.785273830436,37.3784642134263
권선탁구장,예술·스포츠,스포츠 서비스,탁구장,경기도 수원시 권선구 세권로207번길 1,441824.0,16568,127.026929435376,37.2551783688004
정안당구장,예술·스포츠,스포츠 서비스,당구장,경기도 고양시 덕양구 호국로790번길 17,412807.0,10463,126.837252255167,37.6562811876682
제이앤제이골프,예술·스포츠,스포츠 서비스,골프 연습장,경기도 안산시 단원구 초지동로 41,425855.0,15448,126.816598002538,37.30727258283
살빠짐PT,예술·스포츠,스포츠 서비스,헬스장,경기도 안산시 상록구 광덕1로 376,426863.0,15495,126.851463283952,37.3079161611303
알까기당구장,예술·스포츠,스포츠 서비스,당구장,경기도 안산시 상록구 도매시장로 101,426859.0,15322,126.863836611016,37.3147068219322
바로피트니스,예술·스포츠,스포츠 서비스,헬스장,경기도 안산시 단원구 광덕서로 44,425807.0,15476,126.827345187508,37.3084420738972
뽀록당구장,예술·스포츠,스포츠 서비스,당구장,경기도 광주시 텃골길 19,464080.0,12768,127.213880809925,37.4067938414383
세신당구장,예술·스포츠,스포츠 서비스,당구장,경기도 고양시 덕양구 중앙로 542,412836.0,10495,126.837006902582,37.6233498911303
에스핏,예술·스포츠,스포츠 서비스,헬스장,경기도 성남시 분당구 성남대로916번길 5,463827.0,13506,127.129866074876,37.4115472101067
더골프,예술·스포츠,스포츠 서비스,골프 연습장,경기도 시흥시 마전로 307,429800.0,15003,126.771373470966,37.3678150904489
시흥승마힐링체험장,예술·스포츠,스포츠 서비스,당구장,경기도 시흥시 마전로 342,429832.0,15003,126.772371060134,37.370177698088
플랜원피트니스,예술·스포츠,스포츠 서비스,헬스장,경기도 수원시 권선구 금곡로 112,441460.0,16388,126.94260995304,37.2739362270277
다산아미점핑,예술·스포츠,스포츠 서비스,헬스장,경기도 남양주시 다산중앙로146번길 12-1,,12285,127.154026711003,37.6258126183447
월드스포션,예술·스포츠,스포츠 서비스,골프 연습장,경기도 안산시 상록구 감골1로 35,426751.0,15624,126.851040481923,37.2877954916126
프렌즈골프&펍,예술·스포츠,스포츠 서비스,골프 연습장,경기도 성남시 수정구 위례광장로 300,461210.0,13640,127.142702531257,37.4734771382073
에이플러스짐,예술·스포츠,스포츠 서비스,헬스장,경기도 고양시 일산동구 중산로 63,410315.0,10355,126.782124387724,37.6777436650793
슬기로운피앤비,예술·스포츠,스포츠 서비스,헬스장,경기도 성남시 중원구 양현로 461,462080.0,13436,127.133332436806,37.4171296669275
트랜스핏짐,예술·스포츠,스포츠 서비스,헬스장,경기도 성남시 분당구 분당로53번길 15,463824.0,13591,127.12198283115,37.3843627871908
버디버디스크린골프아카데미,예술·스포츠,스포츠 서비스,골프 연습장,경기도 시흥시 중심상가로 317,429858.0,15062,126.747666015519,37.3375915178411
대청레포츠센터밀리토피아지점,예술·스포츠,스포츠 서비스,헬스장,경기도 성남시 수정구 위례대로 83,461210.0,13646,127.143369572246,37.4675837260586
아모르바디,예술·스포츠,스포츠 서비스,헬스장,경기도 성남시 분당구 정자일로 146,463867.0,13559,127.106347756521,37.3630235880784
잼있는점핑체온다이어트,예술·스포츠,스포츠 서비스,기타 스포츠시설 운영업,경기도 부천시 원미구 부일로 298,420811.0,14625,126.763272844148,37.4882468530783
안산탁구클럽,예술·스포츠,스포츠 서비스,탁구장,경기도 안산시 상록구 석호로 268,426816.0,15552,126.860220877103,37.2934471826859
저스트짐,예술·스포츠,스포츠 서비스,헬스장,경기도 수원시 팔달구 경수대로 460,442833.0,16489,127.027159121756,37.266990984688
더블유,예술·스포츠,스포츠 서비스,골프 연습장,경기도 화성시 꽃내음1길 19-22,,18244,126.818505314427,37.283389054175
엠스크린골프존,예술·스포츠,스포츠 서비스,골프 연습장,경기도 김포시 김포한강1로78번길 5-7,415060.0,10079,126.67042863292,37.6452294361859
골드A휘트니스,예술·스포츠,스포츠 서비스,헬스장,경기도 안양시 만안구 안양로 283,430832.0,14001,126.921984145807,37.3975639048669
썬당구장,예술·스포츠,스포츠 서비스,당구장,경기도 광주시 곤지암읍 광여로 64,464872.0,12802,127.352598087655,37.3498954849062
짐무드배곧점,예술·스포츠,스포츠 서비스,헬스장,경기도 시흥시 서울대학로278번길 61,,15011,126.730675060522,37.3681889420436
프렌즈스크린파주통일동산점,예술·스포츠,스포츠 서비스,골프 연습장,경기도 파주시 탄현면 성동로 17,413841.0,10862,126.686725519528,37.7791940500988
에스지스크린골프,예술·스포츠,스포츠 서비스,골프 연습장,경기도 광명시 도덕로 17,423818.0,14281,126.849869567129,37.4680979158434
캐롬당구클럽,예술·스포츠,스포츠 서비스,당구장,경기도 의정부시 오목로205번길 61,480090.0,11813,127.095478995802,37.7459838091325
하예산업개발,예술·스포츠,스포츠 서비스,골프 연습장,경기도 하남시 미사강변대로 42,465170.0,12919,127.185940512775,37.5541468582759
특실당구장,예술·스포츠,스포츠 서비스,당구장,경기도 안산시 상록구 원당골길 17,426400.0,15202,126.876504324185,37.3635655639628
제이투짐,예술·스포츠,스포츠 서비스,헬스장,경기도 광명시 일직로12번길 21,423090.0,14344,126.882612446455,37.4208137175976
커브스신장클럽,예술·스포츠,스포츠 서비스,헬스장,경기도 하남시 대청로 29,465810.0,12947,127.215565020874,37.5410680702363
더디짐,예술·스포츠,스포츠 서비스,헬스장,경기도 김포시 김포한강9로75번길 50,415080.0,10071,126.62292718021,37.643456401994
라온스크린골프,예술·스포츠,스포츠 서비스,골프 연습장,경기도 평택시 안중읍 현화중앙길 1,451885.0,17944,126.920695466565,36.9786812973078
골드바디케어트레이닝센터,예술·스포츠,스포츠 서비스,테니스장,경기도 파주시 문산읍 문향로 101-2,413902.0,10821,126.787349053965,37.8604685700195
뉴유성볼링장,예술·스포츠,스포츠 서비스,볼링장,경기도 안성시 공도읍 서동대로 4545,456822.0,17548,127.206955320534,37.0101553706676
휘트니스클럽S,예술·스포츠,스포츠 서비스,헬스장,경기도 수원시 팔달구 아주로 25,442820.0,16497,127.043681402364,37.2770957201865
와이케이유닛,예술·스포츠,스포츠 서비스,골프 연습장,경기도 수원시 장안구 송원로 20,440210.0,16307,127.006564095713,37.2970976448013
스마트골프아카데미옥정,예술·스포츠,스포츠 서비스,골프 연습장,경기도 양주시 회천남로 92,482130.0,11473,127.092210625786,37.8185679594664
문산MK볼링장,예술·스포츠,스포츠 서비스,볼링장,경기도 파주시 문산읍 문산로26번길 14,413730.0,10823,126.781757784268,37.8567103894139
엠케이짐,예술·스포츠,스포츠 서비스,헬스장,경기도 고양시 일산동구 위시티1로 6-47,410821.0,10324,126.807367700422,37.6740034891285
킹덤볼링장,예술·스포츠,스포츠 서비스,볼링장,경기도 수원시 영통구 반달로7번길 40,443470.0,16704,127.075206898123,37.2535356685032
소녀감성핏일산,예술·스포츠,스포츠 서비스,헬스장,경기도 고양시 일산동구 숲속마을로 20,410330.0,10305,126.801060549556,37.6672807286444
와이제이골프클럽,예술·스포츠,스포츠 서비스,골프 연습장,경기도 김포시 김포한강9로 95,415080.0,10071,126.625683260606,37.6451680292413
에버빌휘트니스,예술·스포츠,스포츠 서비스,헬스장,경기도 용인시 기흥구 동백중앙로 73,446718.0,17013,127.159709448932,37.2624532539704
JJ퍼스널트레이닝스튜디오,예술·스포츠,스포츠 서비스,헬스장,경기도 평택시 관광특구로 6,459813.0,17774,127.059471250858,37.0668183953883
동천동PT윤짐,예술·스포츠,스포츠 서비스,헬스장,경기도 용인시 수지구 동천로 62,448500.0,16825,127.096204386657,37.3403083353954
새로나당구장,예술·스포츠,스포츠 서비스,당구장,경기도 안성시 중앙로372번길 16,456240.0,17581,127.267765351995,37.0072584360441
머스트휘트니스,예술·스포츠,스포츠 서비스,헬스장,경기도 남양주시 별내5로5번길 15,472501.0,12102,127.112444735942,37.6504023896312
강오빌리어드,예술·스포츠,스포츠 서비스,당구장,경기도 화성시 수노을중앙로 150,,18244,126.818978038906,37.2837592036051
유스페이스스크린,예술·스포츠,스포츠 서비스,골프 연습장,경기도 성남시 분당구 대왕판교로 660,463400.0,13494,127.1068972906,37.4002624062576
연세승마클럽,예술·스포츠,스포츠 서비스,당구장,경기도 용인시 처인구 모현읍 문형동림로 219,449853.0,16888,127.182617888817,37.3281957757563
더케이골프테라스,예술·스포츠,스포츠 서비스,골프 연습장,경기도 김포시 걸포2로 45,415020.0,10099,126.702856323375,37.6341884455176
드림당구클럽,예술·스포츠,스포츠 서비스,당구장,경기도 수원시 팔달구 중부대로 17,442010.0,16262,127.018852290103,37.2755074368096
DAMA당구클럽,예술·스포츠,스포츠 서비스,당구장,경기도 용인시 처인구 모현읍 외대로 36,449854.0,17035,127.253388730427,37.33580522671
신나라스크린골프,예술·스포츠,스포츠 서비스,골프 연습장,경기도 안산시 단원구 광덕대로 141,425807.0,15476,126.828945500374,37.3090931424699
크로스핏디짐,예술·스포츠,스포츠 서비스,헬스장,경기도 평택시 정암로 120,459824.0,17739,127.067119075809,37.0559653970725
아이스포츠,예술·스포츠,스포츠 서비스,종합 스포츠시설,경기도 고양시 덕양구 대덕로86번길 8,412190.0,10540,126.872321768886,37.5929309491401
우리당구장,예술·스포츠,스포츠 서비스,당구장,경기도 의정부시 청사로 49,480865.0,11757,127.06946822381,37.7526781803056
용인홀스트래킹,예술·스포츠,스포츠 서비스,당구장,경기도 용인시 처인구 이동읍 묘봉로 298-6,449832.0,17138,127.242739588847,37.1258930713885
정헬스,예술·스포츠,스포츠 서비스,헬스장,경기도 성남시 수정구 수정로 176,461864.0,13338,127.139469160022,37.4429637288431
비타민휘트니스,예술·스포츠,스포츠 서비스,헬스장,경기도 광명시 도덕로 63,423815.0,14276,126.854432988744,37.4698786154079
돌담스포츠클럽,예술·스포츠,스포츠 서비스,당구장,경기도 화성시 융건로106번길 1,445350.0,18344,126.989983612259,37.2200131744546
칼라힐산본골프,예술·스포츠,스포츠 서비스,골프 연습장,경기도 군포시 번영로 505,435805.0,15865,126.933210445594,37.35879068092
크라운,예술·스포츠,스포츠 서비스,당구장,경기도 화성시 향남읍 발안서로 33-2,445923.0,18594,126.903700359394,37.1315809276982
바우당구장,예술·스포츠,스포츠 서비스,당구장,경기도 용인시 기흥구 죽전로 15,446858.0,16897,127.110338406355,37.3207436127352
더알제이주,예술·스포츠,스포츠 서비스,볼링장,경기도 성남시 수정구 모란로 46,461807.0,13313,127.126950014843,37.4372563949856
에누리대대클럽,예술·스포츠,스포츠 서비스,당구장,경기도 김포시 통진읍 조강로 40,415867.0,10018,126.601139510528,37.6898480358602
동창산업주,예술·스포츠,스포츠 서비스,골프 연습장,경기도 고양시 덕양구 중앙로 122-7,412160.0,10538,126.874280205215,37.5999247401057
타운헬스,예술·스포츠,스포츠 서비스,헬스장,경기도 성남시 수정구 공원로445번길 7,461820.0,13276,127.141040784323,37.4494491620317
SG스크린골프덕소점,예술·스포츠,스포츠 서비스,골프 연습장,경기도 남양주시 와부읍 덕소로 230-52,472908.0,12276,127.219721728791,37.5771362636598
어라운드트레이닝,예술·스포츠,스포츠 서비스,헬스장,경기도 수원시 권선구 서수원로 437,441450.0,16402,126.962187590465,37.2656635301126
점핑파크,예술·스포츠,스포츠 서비스,기타 스포츠시설 운영업,경기도 김포시 김포한강8로 410,415080.0,10071,126.623631985127,37.6429991531669
무브멘토,예술·스포츠,스포츠 서비스,헬스장,경기도 화성시 동탄지성로 92,445160.0,18434,127.06504507818,37.2075071893787
티제이빌리아드,예술·스포츠,스포츠 서비스,당구장,경기도 남양주시 경춘로1306번길 2,472936.0,12218,127.237749162902,37.6498740339793
원픽짐,예술·스포츠,스포츠 서비스,헬스장,경기도 광명시 시청로 50,423033.0,14233,126.865390096295,37.4807397567
삼송,예술·스포츠,스포츠 서비스,골프 연습장,경기도 포천시 가산면 감암길 64,487812.0,11164,127.190376584125,37.8511187867943
캘러웨이스크린골프시흥센터,예술·스포츠,스포츠 서비스,골프 연습장,경기도 시흥시 중심상가1길 9,429861.0,15066,126.734869815893,37.3438797396791
살빠GYM&복싱,예술·스포츠,스포츠 서비스,헬스장,경기도 군포시 용호1로 32,435012.0,15871,126.938797485731,37.345368377592
원피스당구클럽,예술·스포츠,스포츠 서비스,당구장,경기도 부천시 오정구 지양로152번길 13,421802.0,14469,126.82554970343,37.5235754745597
STARGYM,예술·스포츠,스포츠 서비스,헬스장,경기도 이천시 애련정로 109,467807.0,17370,127.450069089473,37.2802578109115
도예당구장,예술·스포츠,스포츠 서비스,당구장,경기도 이천시 경충대로 2995,467020.0,17308,127.411691490189,37.2957781251254
KTS퍼스널트레이닝,예술·스포츠,스포츠 서비스,헬스장,경기도 안성시 일죽면 주래본죽로 18,456915.0,17529,127.476579036761,37.0939169697927
에스알엔,예술·스포츠,스포츠 서비스,테니스장,경기도 용인시 처인구 포곡읍 옥현로65번길 268-11,449815.0,17022,127.22560852213,37.2835114249834
청덕골프,예술·스포츠,스포츠 서비스,골프 연습장,경기도 용인시 기흥구 구성로 357,446915.0,16914,127.14813183175,37.2912745349389
피트니스동의보감,예술·스포츠,스포츠 서비스,헬스장,경기도 남양주시 화도읍 폭포로 17-4,472848.0,12182,127.307708073688,37.6492708198123
한큐당구클럽,예술·스포츠,스포츠 서비스,당구장,경기도 평택시 평남로 654,450152.0,17900,127.107502894478,36.9921303213322
더제이피트니스향남1지구점,예술·스포츠,스포츠 서비스,헬스장,경기도 화성시 향남읍 행정중앙2로 63-34,445926.0,18600,126.922574173007,37.1305765568824
에이오피티,예술·스포츠,스포츠 서비스,헬스장,경기도 화성시 향남읍 향남로 418-10,445926.0,18591,126.922291115674,37.1322523472916
유성스크린골프,예술·스포츠,스포츠 서비스,골프 연습장,경기도 김포시 청송로 8,415060.0,10080,126.665310701872,37.6469449091142
예신아카데미,예술·스포츠,스포츠 서비스,골프 연습장,경기도 파주시 시청로 279,413010.0,10855,126.768483016435,37.7702382827509
베럴짐,예술·스포츠,스포츠 서비스,헬스장,경기도 수원시 장안구 창룡대로 195,440813.0,16219,127.031397556116,37.2926965996832
머슬뷰짐,예술·스포츠,스포츠 서비스,헬스장,경기도 화성시 봉담읍 동화길 93-14,445893.0,18302,126.959992406278,37.2169432744234
쓰리포당구장,예술·스포츠,스포츠 서비스,당구장,경기도 파주시 한마음2길 41-1,413814.0,10925,126.771882990949,37.7570908395908
레벨업휘트니스,예술·스포츠,스포츠 서비스,헬스장,경기도 부천시 원미구 중동로 354-6,420830.0,14518,126.770133620251,37.5112540297032
천사당구클럽,예술·스포츠,스포츠 서비스,당구장,경기도 성남시 분당구 성남대로 165,463805.0,13615,127.108316896279,37.3507678263792
아너스테니스센터,예술·스포츠,스포츠 서비스,테니스장,경기도 고양시 일산동구 장진천길 152-6,410819.0,10253,126.811158470423,37.7212927679747
빅토리짐,예술·스포츠,스포츠 서비스,헬스장,경기도 포천시 영북면 영북로 168,487892.0,11104,127.275152241578,38.0892566183116
동네헬스장,예술·스포츠,스포츠 서비스,헬스장,경기도 시흥시 신천로 95,429831.0,14949,126.785993703674,37.4389869250698
나이스스크린골프,예술·스포츠,스포츠 서비스,골프 연습장,경기도 안양시 동안구 흥안대로409번길 46,431804.0,14059,126.970910339049,37.3910176110965
Breton당구장,예술·스포츠,스포츠 서비스,당구장,경기도 화성시 향남읍 상신하길로 326,445938.0,18606,126.911201228198,37.1170075814733
브라보골프,예술·스포츠,스포츠 서비스,골프 연습장,경기도 고양시 일산동구 중앙로1275번길 64,410837.0,10401,126.768851422831,37.6590411146897
에스지골프부천역사점,예술·스포츠,스포츠 서비스,골프 연습장,경기도 부천시 소사구 부천로 1,422758.0,14637,126.782654207699,37.4840403569703
체인지핏,예술·스포츠,스포츠 서비스,헬스장,경기도 시흥시 서울대학로264번길 26-32,,15011,126.72773432376,37.3666054177899
위례월드탁구,예술·스포츠,스포츠 서비스,테니스장,경기도 성남시 수정구 위례동로 135,461210.0,13642,127.150082270532,37.4722786628306
고강도다이어트짐신,예술·스포츠,스포츠 서비스,헬스장,경기도 부천시 원미구 중동로254번길 41,420852.0,14548,126.771144926438,37.5023180415732
M당구클럽,예술·스포츠,스포츠 서비스,당구장,경기도 남양주시 별내2로 64,472501.0,12113,127.124868993527,37.646434578278
티스크린골프,예술·스포츠,스포츠 서비스,골프 연습장,경기도 김포시 양촌읍 양곡2로60번길 43,415792.0,10060,126.629499099584,37.6571090256329
광명탁구회관,예술·스포츠,스포츠 서비스,기타 스포츠시설 운영업,경기도 광명시 광화로 22,423817.0,14294,126.848942946571,37.4735568541198
휴게실당구장,예술·스포츠,스포츠 서비스,당구장,경기도 수원시 권선구 매송고색로 695,441811.0,16625,126.980387351042,37.2509809426062
핏,예술·스포츠,스포츠 서비스,헬스장,경기도 용인시 처인구 명지로 24,449933.0,17055,127.188024905721,37.233965736068
크로스핏이가,예술·스포츠,스포츠 서비스,헬스장,경기도 의정부시 호암로 111,480854.0,11643,127.046531741461,37.7107132478547
올레스크린골프,예술·스포츠,스포츠 서비스,골프 연습장,경기도 고양시 일산동구 중앙로 1172,410811.0,10414,126.77839287614,37.6517344532116
프롬당구장,예술·스포츠,스포츠 서비스,당구장,경기도 양주시 은현면 은현로 7,482862.0,11427,127.021298566191,37.8701186397683
지에스휘트니스,예술·스포츠,스포츠 서비스,헬스장,경기도 군포시 고산로 515,435854.0,15823,126.922509111821,37.3593337812742
팔층피티,예술·스포츠,스포츠 서비스,헬스장,경기도 용인시 수지구 광교중앙로 313,448130.0,16944,127.068980263567,37.2980508453861
모두당구클럽,예술·스포츠,스포츠 서비스,당구장,경기도 안양시 동안구 관평로305번길 28,431805.0,13936,126.955589978207,37.4039605320717
레드엑서사이즈,예술·스포츠,스포츠 서비스,헬스장,경기도 화성시 봉담읍 와우로73번길 6,445897.0,18321,126.974211780276,37.2141179281628
매니아당구장,예술·스포츠,스포츠 서비스,당구장,경기도 양주시 화합로 1365,482060.0,11450,127.06247509595,37.8432646498098
짐플렉스,예술·스포츠,스포츠 서비스,헬스장,경기도 성남시 분당구 야탑로 247,463817.0,13508,127.14612336315,37.4072033428464
골프존파크모아점,예술·스포츠,스포츠 서비스,골프 연습장,경기도 김포시 양촌읍 김포대로 1641,415842.0,10054,126.655660413818,37.6632879108276
온리스포츠,예술·스포츠,스포츠 서비스,헬스장,경기도 화성시 향남읍 행정서로3길 28-9,445926.0,18598,126.9185113686,37.1307630568287
스티븐스포츠아카데미센터,예술·스포츠,스포츠 서비스,당구장,경기도 이천시 호법면 이섭대천로527번길 151,467822.0,17394,127.418965293184,37.226462922936
리턴피티스튜디오,예술·스포츠,스포츠 서비스,헬스장,경기도 성남시 분당구 느티로 16,463847.0,13558,127.106309861394,37.3681684820408
밀론,예술·스포츠,스포츠 서비스,헬스장,경기도 하남시 미사대로 410,465150.0,12912,127.197109385059,37.5666075292488
송추당구클럽,예술·스포츠,스포츠 서비스,당구장,경기도 양주시 장흥면 호국로 568,482811.0,11522,126.976771372843,37.7185586089158
크로스핏손오공,예술·스포츠,스포츠 서비스,헬스장,경기도 고양시 덕양구 용현로 22,412724.0,10527,126.836017706601,37.614717065477
퍼스트골프존파크,예술·스포츠,스포츠 서비스,골프 연습장,경기도 시흥시 거북섬4길 2,429450.0,15119,126.682037615238,37.3236295897784
스카이,예술·스포츠,스포츠 서비스,골프 연습장,경기도 이천시 부발읍 중부대로1390번길 208,467863.0,17327,127.47744362038,37.2690138079762
몸매학교점핑다이어트,예술·스포츠,스포츠 서비스,기타 스포츠시설 운영업,경기도 광주시 곤지암읍 평촌길 31-16,464937.0,12800,127.326700671442,37.3562049311655
대림동산스크린골프존,예술·스포츠,스포츠 서비스,골프 연습장,경기도 안성시 공도읍 대림동산길 54,456822.0,17548,127.201966691849,37.0144531004344
고릴라휘트니스,예술·스포츠,스포츠 서비스,헬스장,경기도 평택시 안중읍 안현로서8길 15,451885.0,17943,126.923548244101,36.9786651469014
파워헬스,예술·스포츠,스포츠 서비스,헬스장,경기도 안성시 낙원길 112,456110.0,17591,127.275331169423,37.0053398506253
백년탁구교육원,예술·스포츠,스포츠 서비스,테니스장,경기도 남양주시 와부읍 수레로1번길 8,472901.0,12205,127.21277730281,37.5873482136743
하이런,예술·스포츠,스포츠 서비스,당구장,경기도 화성시 마도면 청원산단로 203,445862.0,18543,126.765298039509,37.1722866922662
브레이브힐호평,예술·스포츠,스포츠 서비스,헬스장,경기도 남양주시 천마산로 27,472120.0,12141,127.247191340227,37.6644324823094
태광당구클럽,예술·스포츠,스포츠 서비스,당구장,경기도 평택시 송탄로 147,459825.0,17779,127.05898007149,37.0569068392825
오션스크린골프,예술·스포츠,스포츠 서비스,골프 연습장,경기도 화성시 정남면 서봉로 1104,445967.0,18519,126.982470199013,37.1639667952788
강남골프존,예술·스포츠,스포츠 서비스,골프 연습장,경기도 화성시 봉담읍 동화역말길 73-2,445893.0,18298,126.968273191285,37.2172881806459
거북이GYM,예술·스포츠,스포츠 서비스,헬스장,경기도 안양시 동안구 관악대로 361,431807.0,13938,126.962953741298,37.4044856605922
귀빈스크린골프,예술·스포츠,스포츠 서비스,골프 연습장,경기도 평택시 팽성읍 안정순환로 63,451807.0,17978,127.047381999924,36.9556395048222
아트바디,예술·스포츠,스포츠 서비스,헬스장,경기도 안산시 단원구 초지2로 69,425855.0,15448,126.816520991183,37.3064705428509
월드컵당구장,예술·스포츠,스포츠 서비스,당구장,경기도 시흥시 중심상가로 326,429861.0,15062,126.748244530133,37.3366917215923
디엔에이당구클럽,예술·스포츠,스포츠 서비스,당구장,경기도 화성시 동탄중심상가2길 26-31,445160.0,18453,127.073617322046,37.2069435208637
바디트랜스짐장곡점,예술·스포츠,스포츠 서비스,헬스장,경기도 시흥시 진말로 7,429842.0,15002,126.785263721513,37.3780497244689
피트니스169Rd,예술·스포츠,스포츠 서비스,헬스장,경기도 안양시 동안구 관악대로 169,431820.0,13926,126.942853400115,37.399179650685
프렌드짐,예술·스포츠,스포츠 서비스,헬스장,경기도 시흥시 중심상가2길 20-5,429861.0,15066,126.73733858558,37.3446691404759
킹스짐,예술·스포츠,스포츠 서비스,헬스장,경기도 수원시 영통구 센트럴타운로 85,443270.0,16507,127.050478933524,37.2915637027472
센터당구클럽,예술·스포츠,스포츠 서비스,당구장,경기도 의왕시 내손중앙로 43,437807.0,16026,126.980351997056,37.3869199017624
베이시스,예술·스포츠,스포츠 서비스,당구장,경기도 안양시 동안구 경수대로 911,431821.0,13955,126.935062101158,37.3975357693517
ok당구장,예술·스포츠,스포츠 서비스,당구장,경기도 양주시 광적면 가래비길 78,482841.0,11419,126.984779993585,37.823954752316
럭스골프스튜디오,예술·스포츠,스포츠 서비스,골프 연습장,경기도 고양시 일산동구 백마로 500,410842.0,10300,126.803702547567,37.6625550125202
노올자,예술·스포츠,스포츠 서비스,당구장,경기도 수원시 권선구 칠보로 115,441884.0,16399,126.951612174794,37.2665517115589
베스트골프클럽,예술·스포츠,스포츠 서비스,골프 연습장,경기도 군포시 공단로 215,435824.0,15841,126.947903339058,37.3642042276295
위드테니스아카데미,예술·스포츠,스포츠 서비스,테니스장,경기도 화성시 동탄순환대로 719,445130.0,18472,127.108755009251,37.2082680485934
리얼리영점핑다이어트,예술·스포츠,스포츠 서비스,헬스장,경기도 오산시 남부대로 327,447805.0,18143,127.071804164684,37.1360945940516
행신,예술·스포츠,스포츠 서비스,골프 연습장,경기도 고양시 덕양구 중앙로558번길 7-4,412836.0,10495,126.835679612834,37.6242400266396
더블유스크린골프,예술·스포츠,스포츠 서비스,골프 연습장,경기도 남양주시 별내중앙로 24,472501.0,12113,127.126227048292,37.6454420514832
예스스크린골프,예술·스포츠,스포츠 서비스,골프 연습장,경기도 수원시 영통구 효원로 393,443848.0,16545,127.044696843696,37.2591105533555
포레피티,예술·스포츠,스포츠 서비스,헬스장,경기도 김포시 김포한강8로 153,415090.0,10068,126.642779074609,37.6362202420434
장흥당구클럽,예술·스포츠,스포츠 서비스,당구장,경기도 양주시 장흥면 권율로 10,482812.0,11520,126.941793135016,37.7175284296219
리얼야구존광주점,예술·스포츠,스포츠 서비스,기타 스포츠시설 운영업,경기도 광주시 중앙로 95-11,464807.0,12759,127.258341456474,37.4079214289347
쎄리당구장,예술·스포츠,스포츠 서비스,당구장,경기도 안양시 만안구 장내로 150,430829.0,13996,126.924072887596,37.3981238978749
민짐,예술·스포츠,스포츠 서비스,헬스장,경기도 화성시 병점2로 46,445360.0,18414,127.041759512138,37.2066616884472
카리스어드바이저,예술·스포츠,스포츠 서비스,골프 연습장,경기도 화성시 동탄공원로3길 34,445160.0,18435,127.062003949001,37.2080764820846
프렌즈스크린엠골프스튜디오,예술·스포츠,스포츠 서비스,골프 연습장,경기도 의정부시 월유로 13,480060.0,11800,127.110476575532,37.7292306961524
과천,예술·스포츠,스포츠 서비스,골프 연습장,경기도 과천시 자하동길 45,427010.0,13800,126.985808532417,37.4334313269843
가넷프리미엄골프아카데미,예술·스포츠,스포츠 서비스,기타 스포츠시설 운영업,경기도 성남시 분당구 내정로166번길 43,463022.0,13599,127.122648798507,37.3703511702098
엄정옥골프아카데미,예술·스포츠,스포츠 서비스,골프 연습장,경기도 안성시 안성맞춤대로 763,456280.0,17595,127.266333094898,36.9831757791171
JJ당구클럽,예술·스포츠,스포츠 서비스,당구장,경기도 의정부시 의정로 198,480813.0,11676,127.034279222448,37.7505133262391
큐이디골프아카데미범박점,예술·스포츠,스포츠 서비스,골프 연습장,경기도 부천시 소사구 범안로 117,422804.0,14782,126.809585013589,37.4712114213271
하다스포츠,예술·스포츠,스포츠 서비스,헬스장,경기도 용인시 수지구 죽전로 172,448160.0,16889,127.124957293182,37.3259640773108
레몬짐,예술·스포츠,스포츠 서비스,헬스장,경기도 성남시 분당구 불정로 379,463818.0,13586,127.136417921292,37.3743636720418
퍼니골프용품,예술·스포츠,스포츠 서비스,골프 연습장,경기도 양주시 경동대학로 61,482010.0,11458,127.071159419966,37.8123479307496
이신영캐롬캐슬,예술·스포츠,스포츠 서비스,당구장,경기도 수원시 장안구 팔달로 211,440822.0,16272,127.008886222376,37.2864922768243
이매탁구클럽,예술·스포츠,스포츠 서비스,탁구장,경기도 성남시 분당구 성남대로779번길 17,463829.0,13567,127.126422290076,37.3989276520771
파워존위례,예술·스포츠,스포츠 서비스,헬스장,경기도 성남시 수정구 위례광장로 300,461210.0,13640,127.142702531257,37.4734771382073
피망당구장,예술·스포츠,스포츠 서비스,당구장,경기도 의정부시 동일로 671,480823.0,11749,127.053249401887,37.7477673400312
아름탁구교실,예술·스포츠,스포츠 서비스,탁구장,경기도 화성시 봉담읍 동화역말길 124,445897.0,18321,126.973297640654,37.2186049516888
디에이치더블유금촌볼링장,예술·스포츠,스포츠 서비스,볼링장,경기도 파주시 중앙로 308,413800.0,10930,126.775688187956,37.7634048950526
신중동스트라이크존,예술·스포츠,스포츠 서비스,기타 스포츠시설 운영업,경기도 부천시 원미구 조마루로297번길 51,420852.0,14580,126.776014971291,37.49995773511
크로스핏히어로,예술·스포츠,스포츠 서비스,헬스장,경기도 수원시 권선구 권선로699번길 24-12,441822.0,16571,127.028813625805,37.2597011618518
스텝업트레이닝,예술·스포츠,스포츠 서비스,헬스장,경기도 화성시 동탄기흥로 565,445130.0,18469,127.092277437425,37.2111653908651
로라비트,예술·스포츠,스포츠 서비스,테니스장,경기도 고양시 일산서구 한류월드로 300,411410.0,10392,126.754531005208,37.6645532064076
엠스포츠,예술·스포츠,스포츠 서비스,테니스장,경기도 용인시 처인구 명지로 116,449728.0,17058,127.190180572464,37.2218071788805
조개터스크린골프,예술·스포츠,스포츠 서비스,골프 연습장,경기도 평택시 중앙2로 166,450020.0,17915,127.104666273919,36.9878797421787
둘리당구장,예술·스포츠,스포츠 서비스,당구장,경기도 과천시 별양상가1로 38,427800.0,13837,126.99356005694,37.4281520455704
귀빈당구장,예술·스포츠,스포츠 서비스,당구장,경기도 고양시 일산동구 일산로 141,410815.0,10445,126.792700488629,37.6493097929273
커브스사우클럽,예술·스포츠,스포츠 서비스,헬스장,경기도 김포시 사우중로 45,415803.0,10108,126.718501779737,37.6192254278732
다부짐,예술·스포츠,스포츠 서비스,헬스장,경기도 용인시 수지구 수지로113번길 15,448981.0,16849,127.075424111245,37.3130851988797
성심피티PT,예술·스포츠,스포츠 서비스,헬스장,경기도 화성시 동탄신리천로 414,,18490,127.123931490787,37.1820235163827
메카당구장,예술·스포츠,스포츠 서비스,당구장,경기도 수원시 팔달구 향교로 10-2,442081.0,16455,127.002356291733,37.2676608472323
백옥스크린골프,예술·스포츠,스포츠 서비스,골프 연습장,경기도 용인시 처인구 이동읍 백옥대로 558-1,449833.0,17128,127.2062878166,37.1868735556581
미스터리당구클럽,예술·스포츠,스포츠 서비스,당구장,경기도 용인시 기흥구 흥덕1로79번길 2,446908.0,16954,127.071496141383,37.274991775924
동탄골프트레이닝센터,예술·스포츠,스포츠 서비스,골프 연습장,경기도 화성시 서동탄로 7-25,445390.0,18416,127.046657457857,37.202848414299
버디스크린골프,예술·스포츠,스포츠 서비스,골프 연습장,경기도 평택시 현덕면 서동대로 1256,451813.0,17945,126.892471231813,36.9865706122322
교문,예술·스포츠,스포츠 서비스,골프 연습장,경기도 구리시 장자대로37번길 24,471708.0,11939,127.134804362583,37.5888505435603
학정볼링장,예술·스포츠,스포츠 서비스,볼링장,경기도 부천시 오정구 소사로 772,421819.0,14420,126.805342234759,37.5248593598499
Par&bar스크린골프존,예술·스포츠,스포츠 서비스,골프 연습장,경기도 오산시 대호로117번길 22,447140.0,18123,127.053477339276,37.1618385408293
찰리당구클럽,예술·스포츠,스포츠 서비스,당구장,경기도 이천시 부발읍 경충대로2092번길 20,467866.0,17332,127.49114399101,37.2519912965234
한솔당구장,예술·스포츠,스포츠 서비스,당구장,경기도 안양시 동안구 관평로182번길 30,431786.0,14066,126.962168655087,37.3934749291108
웰빙스크린골프,예술·스포츠,스포츠 서비스,골프 연습장,경기도 수원시 권선구 세지로 73,441875.0,16577,127.017461519349,37.2585770766404
다빠짐,예술·스포츠,스포츠 서비스,스쿼시/라켓볼장,경기도 평택시 중앙로 176,450832.0,17905,127.101930333135,36.9915044788009
세븐당구장,예술·스포츠,스포츠 서비스,당구장,경기도 동두천시 지행로 64,483010.0,11350,127.054160340631,37.8920642036144
열린탁구클럽,예술·스포츠,스포츠 서비스,탁구장,경기도 안산시 단원구 화정천동로 224,425806.0,15344,126.81978247905,37.3247034540947
렉스휘트니스,예술·스포츠,스포츠 서비스,헬스장,경기도 안양시 동안구 관평로 328,431806.0,13937,126.957938435327,37.4053940136261
타우짐,예술·스포츠,스포츠 서비스,헬스장,경기도 파주시 미래로 369-72,413100.0,10905,126.744397538224,37.7110940758612
당구채널,예술·스포츠,스포츠 서비스,당구장,경기도 시흥시 신천로 82,429831.0,14950,126.786212293803,37.4376177795035
에이스골프아카데미,예술·스포츠,스포츠 서비스,골프 연습장,경기도 성남시 분당구 황새울로258번길 28,463825.0,13595,127.116465351218,37.3797100573368
휴스크린골프,예술·스포츠,스포츠 서비스,골프 연습장,경기도 수원시 영통구 삼성로320번길 129,443808.0,16706,127.074317476931,37.2660967640119
한쌤탁구클럽,예술·스포츠,스포츠 서비스,탁구장,경기도 용인시 처인구 금령로 163,449929.0,17153,127.214407824582,37.2346687774499
커브스조원클럽,예술·스포츠,스포츠 서비스,헬스장,경기도 수원시 장안구 경수대로 950,440202.0,16295,127.007512132577,37.3035490106779
진'스피지컬트레이닝센터,예술·스포츠,스포츠 서비스,헬스장,경기도 양주시 옥정동로7다길 94,482130.0,11473,127.092827748887,37.8216217183504
기분좋은헬스클럽,예술·스포츠,스포츠 서비스,헬스장,경기도 안양시 만안구 안양로 110,430725.0,14035,126.933808411629,37.3848126351178
제임스진당구장,예술·스포츠,스포츠 서비스,당구장,경기도 안양시 만안구 장내로 149,430831.0,13992,126.923937090899,37.398394117039
용화당구장,예술·스포츠,스포츠 서비스,당구장,경기도 포천시 가산면 정금로 213,487818.0,11167,127.183673678351,37.8148209871382
엠케이테니스아카데미,예술·스포츠,스포츠 서비스,테니스장,경기도 광주시 초월읍 하오개길71번길 44-19,464865.0,12731,127.336689025688,37.3787385199878
나래당구클럽,예술·스포츠,스포츠 서비스,당구장,경기도 고양시 덕양구 서삼릉길 337,412040.0,10559,126.877157204184,37.6545725780548
25스크린골프,예술·스포츠,스포츠 서비스,골프 연습장,경기도 이천시 갈산로 125,467802.0,17349,127.466937259127,37.2874637957803
BnB당구클럽,예술·스포츠,스포츠 서비스,당구장,경기도 고양시 일산동구 백석로72번길 6-6,410816.0,10446,126.786011542172,37.6465228252454
세븐당구클럽,예술·스포츠,스포츠 서비스,당구장,경기도 남양주시 가운로1길 1,,12263,127.158557857095,37.6044532099356
키플스포츠클럽,예술·스포츠,스포츠 서비스,종합 스포츠시설,경기도 수원시 권선구 금곡로212번길 25,441460.0,16393,126.954483052125,37.2731664925213
현우당구장,예술·스포츠,스포츠 서비스,당구장,경기도 광명시 광명로 960,423803.0,14211,126.857095984897,37.4842980082196
지명근탁구교실,예술·스포츠,스포츠 서비스,탁구장,경기도 군포시 금산로 14,435826.0,15813,126.941074029755,37.3638676426506
용인타워902호,예술·스포츠,스포츠 서비스,당구장,경기도 용인시 처인구 금령로 116,449924.0,17051,127.209247981624,37.2351916023386
당구존,예술·스포츠,스포츠 서비스,당구장,경기도 시흥시 중심상가로 320,429861.0,15062,126.747611100662,37.3371408863859
골프아카데미블루,예술·스포츠,스포츠 서비스,골프 연습장,경기도 성남시 분당구 야탑로 249,463817.0,13508,127.146258780092,37.4071401040426
주현정양궁클럽,예술·스포츠,스포츠 서비스,기타 스포츠시설 운영업,경기도 용인시 처인구 포곡읍 석성로820번길 17,449813.0,17024,127.186134530805,37.2809310255135
한강탁구클럽,예술·스포츠,스포츠 서비스,탁구장,경기도 김포시 김포한강8로 398,415080.0,10071,126.624707372229,37.6432007943941
에스지골프조암점,예술·스포츠,스포츠 서비스,골프 연습장,경기도 화성시 장안면 포승장안로 1556,445941.0,18584,126.8268053046,37.0858816276567
허리우드당구장,예술·스포츠,스포츠 서비스,당구장,경기도 시흥시 매화로 137,429818.0,14942,126.817345010228,37.4087023031896
동일당구장,예술·스포츠,스포츠 서비스,당구장,경기도 용인시 기흥구 구성로 110,446526.0,16919,127.120910678454,37.2931886399176
석세스짐망포역점,예술·스포츠,스포츠 서비스,헬스장,경기도 수원시 영통구 영통로 215,443812.0,16698,127.056817051609,37.246625901607
해안볼링센타,예술·스포츠,스포츠 서비스,볼링장,경기도 안산시 상록구 선진6길 2,426825.0,15633,126.843261004069,37.2815232310236
와우짐,예술·스포츠,스포츠 서비스,헬스장,경기도 김포시 김포한강11로 288-27,415050.0,10073,126.683361968089,37.6547792025402
케이탑,예술·스포츠,스포츠 서비스,헬스장,경기도 김포시 김포한강1로 77-30,415060.0,10080,126.670278266469,37.6459227706482
허리우드당구장,예술·스포츠,스포츠 서비스,당구장,경기도 파주시 아동로 11,413800.0,10930,126.775810142754,37.7643601489381
캐치클라이밍짐,예술·스포츠,스포츠 서비스,종합 스포츠시설,경기도 시흥시 장현장곡로 2,429430.0,14996,126.789292178642,37.3788678910891
수지탁구교실,예술·스포츠,스포츠 서비스,탁구장,경기도 용인시 수지구 만현로 88,448132.0,16930,127.085109846475,37.3090419937095
프렌즈스크린부천원미점,예술·스포츠,스포츠 서비스,골프 연습장,경기도 부천시 원미구 조마루로385번길 72,420837.0,14558,126.789223814416,37.4999550111729
당구천국,예술·스포츠,스포츠 서비스,당구장,경기도 성남시 중원구 금상로 81,462800.0,13197,127.164452257445,37.4420486149821
경희M스포츠용품탁구클럽,예술·스포츠,스포츠 서비스,탁구장,경기도 용인시 기흥구 서그내로53번길 3-38,446906.0,17104,127.076559096619,37.2419563809397
나홍준탁구클럽,예술·스포츠,스포츠 서비스,탁구장,경기도 고양시 일산서구 원일로 117,411864.0,10341,126.775174884096,37.6854610012254
제이스크린골프존,예술·스포츠,스포츠 서비스,골프 연습장,경기도 부천시 원미구 길주로 181,420847.0,14537,126.762642177942,37.5053106147767
프로당구클럽,예술·스포츠,스포츠 서비스,당구장,경기도 시흥시 함송로13번길 6-13,429865.0,15020,126.731208176742,37.3643157518983
남이천스크린골프,예술·스포츠,스포츠 서비스,골프 연습장,경기도 안성시 일죽면 사실로 304,456912.0,17525,127.436949033265,37.1385187798626
플렉스짐,예술·스포츠,스포츠 서비스,헬스장,경기도 고양시 덕양구 화신로272번길 29,412827.0,10500,126.831243412251,37.6323696645225
에이스스크린골프존,예술·스포츠,스포츠 서비스,골프 연습장,경기도 광명시 하안로 108,423798.0,14319,126.892198865434,37.4477722289053
그리너스골프,예술·스포츠,스포츠 서비스,골프 연습장,경기도 화성시 동탄기흥로520번가길 10-13,445130.0,18470,127.093772474734,37.2084971084661
아트볼당구장,예술·스포츠,스포츠 서비스,당구장,경기도 성남시 중원구 광명로 370,462801.0,13182,127.166981970411,37.4464420147596
짐휴,예술·스포츠,스포츠 서비스,헬스장,경기도 성남시 분당구 돌마로 47,463805.0,13615,127.107198992827,37.3503904126999
고구려당구장,예술·스포츠,스포츠 서비스,당구장,경기도 광명시 오리로 986,423807.0,14202,126.853859636615,37.4798610896365
점핑다이어트,예술·스포츠,스포츠 서비스,헬스장,경기도 의왕시 계원대학로 34,437836.0,16039,126.975069966379,37.3790529668145
제이엘골프,예술·스포츠,스포츠 서비스,골프 연습장,경기도 용인시 처인구 금령로71번길 16,449925.0,17052,127.203988997677,37.236588386799
마이짐,예술·스포츠,스포츠 서비스,헬스장,경기도 화성시 10용사로 349-5,445320.0,18429,127.056196053378,37.199591477102
부잰부싼당구장,예술·스포츠,스포츠 서비스,당구장,경기도 시흥시 군서로46번길 8-1,429455.0,15052,126.747918102134,37.3465753036607
영스짐,예술·스포츠,스포츠 서비스,헬스장,경기도 평택시 평남로 858,450151.0,17854,127.11158104022,37.0001281707954
리얼탁구클럽,예술·스포츠,스포츠 서비스,탁구장,경기도 용인시 기흥구 동백중앙로 269,446528.0,17006,127.153053191979,37.2766984849281
김포스포츠센터한국청소년생존수영협회,예술·스포츠,스포츠 서비스,종합 스포츠시설,경기도 김포시 봉화로181번길 31-20,415709.0,10102,126.700928196481,37.626245913222
중앙당구장,예술·스포츠,스포츠 서비스,당구장,경기도 파주시 파평면 장마루로 234,413881.0,10801,126.837407845858,37.9425882677994
에스골프아카데미GDR,예술·스포츠,스포츠 서비스,골프 연습장,경기도 파주시 문산읍 방촌로 1695-21,413902.0,10816,126.781915571068,37.8648642723783
탑당구클럽,예술·스포츠,스포츠 서비스,당구장,경기도 부천시 소사구 성주로200번길 19,422843.0,14749,126.778535238979,37.4775274352919
황제당구클럽,예술·스포츠,스포츠 서비스,당구장,경기도 군포시 금재로 2-1,435859.0,15834,126.941459175465,37.3621468724499
구장당구클럽,예술·스포츠,스포츠 서비스,당구장,경기도 화성시 팔탄면 푸른들판로 658,445915.0,18527,126.895976223931,37.167346452922
킹스크린골프,예술·스포츠,스포츠 서비스,골프 연습장,경기도 이천시 구만리로 226,467802.0,17378,127.457842583781,37.2753984668892
스포츠그룹카스,예술·스포츠,스포츠 서비스,기타 스포츠시설 운영업,경기도 화성시 지산1길 22-12,445130.0,18466,127.112946115698,37.2085524627027
에코베이스볼아카데미,예술·스포츠,스포츠 서비스,당구장,경기도 남양주시 별내면 청학로8번길 29-3,472811.0,12090,127.125225995994,37.7038085283723
탑스산업,예술·스포츠,스포츠 서비스,당구장,경기도 화성시 향남읍 상신하길로135번길 5-11,445937.0,18617,126.898423573342,37.1053465514829
오버탑휘트니스,예술·스포츠,스포츠 서비스,헬스장,경기도 군포시 고산로 256,435818.0,15856,126.944337892111,37.3465694834005
에이스승마랜드,예술·스포츠,스포츠 서비스,당구장,경기도 안산시 상록구 안산벌말길 147,426420.0,15208,126.860699251241,37.3581328360766
승마,예술·스포츠,스포츠 서비스,테니스장,경기도 안산시 단원구 중앙대로 915,425719.0,15361,126.838268261449,37.317179512457
커브스야탑클럽,예술·스포츠,스포츠 서비스,헬스장,경기도 성남시 분당구 성남대로926번길 6,463828.0,13506,127.129855867991,37.4121779346073
일산클라이밍센터,예술·스포츠,스포츠 서비스,헬스장,경기도 고양시 일산동구 중앙로 1123,410730.0,10421,126.781420615166,37.6471450960028
오학당구장,예술·스포츠,스포츠 서비스,당구장,경기도 여주시 강변북로 45,469121.0,12639,127.644736979119,37.3015678059651
고고점핑다이어트,예술·스포츠,스포츠 서비스,헬스장,경기도 안산시 상록구 건건로 123,426210.0,15521,126.904745631427,37.3118454916782
용인스타짐,예술·스포츠,스포츠 서비스,헬스장,경기도 용인시 처인구 중부대로 1408,449926.0,17062,127.200541441141,37.2326747286201
제일당구장,예술·스포츠,스포츠 서비스,당구장,경기도 부천시 원미구 중동로 155,420844.0,14605,126.766851389948,37.4937591131156
아지트스크린골프,예술·스포츠,스포츠 서비스,골프 연습장,경기도 고양시 일산서구 덕이로 328-5,411809.0,10227,126.730493495508,37.7048464088145
카페당구장,예술·스포츠,스포츠 서비스,당구장,경기도 시흥시 동서로 1106,429820.0,14984,126.861300110727,37.3873717991596
제이당구클럽,예술·스포츠,스포츠 서비스,당구장,경기도 부천시 소사구 경인로 132,422820.0,14726,126.769867421598,37.4837458407156
스트라이크존동탄남,예술·스포츠,스포츠 서비스,기타 스포츠시설 운영업,경기도 화성시 동탄중심상가1길 34,445160.0,18455,127.071877330676,37.2014932302699
헬로우짐,예술·스포츠,스포츠 서비스,헬스장,경기도 고양시 일산동구 중앙로 1048,410816.0,10447,126.787855322877,37.6436610313546
해피,예술·스포츠,스포츠 서비스,당구장,경기도 고양시 덕양구 화중로 60,412750.0,10500,126.830801481391,37.6324140808579
동탄JS볼링센터,예술·스포츠,스포츠 서비스,볼링장,경기도 화성시 여울로 178-5,445320.0,18424,127.056860450236,37.2143683923564
스페이스헬스클럽,예술·스포츠,스포츠 서비스,헬스장,경기도 가평군 청평면 경춘로 807-11,477815.0,12451,127.417009125148,37.7378879013205
하늘스크린골프존,예술·스포츠,스포츠 서비스,골프 연습장,경기도 안양시 동안구 관악대로 428,431808.0,13948,126.970396897057,37.4044336971634
손클라이밍앤홀드샵,예술·스포츠,스포츠 서비스,헬스장,경기도 성남시 분당구 대왕판교로 670,463400.0,13494,127.10610926848,37.4020741678968
크로스핏스팟,예술·스포츠,스포츠 서비스,헬스장,경기도 구리시 체육관로171번길 7,471801.0,11925,127.135616792487,37.5997966541172
용당구장,예술·스포츠,스포츠 서비스,당구장,경기도 광명시 하안로 313,423847.0,14248,126.878872483995,37.4632747560668
엘엠케이,예술·스포츠,스포츠 서비스,테니스장,경기도 시흥시 금오로603번길 12-3,429120.0,14927,126.831801318367,37.454846737531
반석수영장,예술·스포츠,스포츠 서비스,수영장,경기도 부천시 원미구 계남로 106-1,420847.0,14537,126.76126406793,37.5083352078368
체인지핏배곧점,예술·스포츠,스포츠 서비스,헬스장,경기도 시흥시 서울대학로264번길 26-32,,15011,126.72773432376,37.3666054177899
별내스크린골프죤,예술·스포츠,스포츠 서비스,골프 연습장,경기도 남양주시 별내중앙로 34,472501.0,12113,127.125389784882,37.6461727407779
인생퍼스널트레이닝,예술·스포츠,스포츠 서비스,헬스장,경기도 화성시 동탄대로8길 58,,18501,127.112776874987,37.1705101639822
수원클라이밍센터,예술·스포츠,스포츠 서비스,헬스장,경기도 수원시 팔달구 월드컵로357번길 23-18,442819.0,16234,127.030617536492,37.288137551206
골프존파크광교,예술·스포츠,스포츠 서비스,골프 연습장,경기도 수원시 영통구 광교중앙로248번길 95-4,443280.0,16512,127.068670162223,37.291914961899
코어짐,예술·스포츠,스포츠 서비스,헬스장,경기도 의정부시 평화로 180,480856.0,11712,127.048412496852,37.7078924419659
홍복헬스클럽,예술·스포츠,스포츠 서비스,헬스장,경기도 양주시 백석읍 양주산성로 566,482836.0,11510,126.991372002636,37.7874755771245
우만당구클럽,예술·스포츠,스포츠 서비스,당구장,경기도 수원시 팔달구 경수대로656번길 55-21,442819.0,16237,127.030379875395,37.2860472028562
독수리당구클럽,예술·스포츠,스포츠 서비스,당구장,경기도 남양주시 진접읍 광릉내로 91,472868.0,12019,127.204379561708,37.7456200459584
평촌메디핏2호,예술·스포츠,스포츠 서비스,헬스장,경기도 안양시 동안구 시민대로 311,431062.0,14055,126.964663171702,37.39607965491
오페라당구클럽,예술·스포츠,스포츠 서비스,당구장,경기도 의왕시 계원대학로 6,437835.0,16039,126.971987356938,37.3796649735208
모아당구장,예술·스포츠,스포츠 서비스,당구장,경기도 부천시 원미구 옥산로138번길 8,420858.0,14527,126.780826977668,37.5057421963474
공굴러가유,예술·스포츠,스포츠 서비스,당구장,경기도 김포시 대곶면 율생로 6,415854.0,10039,126.590354704324,37.6532225117032
한국스크린골프장,예술·스포츠,스포츠 서비스,골프 연습장,경기도 고양시 일산서구 강선로 189,411735.0,10374,126.771405948217,37.6797145365808
피크바이짐화성남양,예술·스포츠,스포츠 서비스,헬스장,경기도 화성시 남양읍 시청로 119,445851.0,18271,126.826487428673,37.2005139476137
키네스,예술·스포츠,스포츠 서비스,헬스장,경기도 성남시 분당구 백현로 97,463825.0,13595,127.111402797803,37.3768406670534
왕자당구장,예술·스포츠,스포츠 서비스,당구장,경기도 광주시 곤지암읍 신만로 9,464942.0,12813,127.390299801346,37.3291165975609
더케이컴퍼니,예술·스포츠,스포츠 서비스,테니스장,경기도 화성시 동탄순환대로 706,445130.0,18466,127.110590589293,37.2078158240215
라임당구클럽,예술·스포츠,스포츠 서비스,당구장,경기도 성남시 중원구 산성대로 330-4,462835.0,13248,127.153119321123,37.4426314786463
미사에코당구클럽,예술·스포츠,스포츠 서비스,당구장,경기도 하남시 미사강변동로84번길 39,465150.0,12912,127.195278659896,37.5634030299972
골프존파크수내24,예술·스포츠,스포츠 서비스,골프 연습장,경기도 성남시 분당구 백현로 97,463825.0,13595,127.111402797803,37.3768406670534
지니스,예술·스포츠,스포츠 서비스,헬스장,경기도 수원시 영통구 권선로 818,443804.0,16549,127.039148244139,37.254553239334
글로우짐,예술·스포츠,스포츠 서비스,헬스장,경기도 수원시 영통구 중부대로448번길 97,443824.0,16521,127.059402462538,37.2665286765778
크로스핏킹콩,예술·스포츠,스포츠 서비스,헬스장,경기도 부천시 원미구 부천로 32,420822.0,14641,126.783697111811,37.4870246029036
공과막대기,예술·스포츠,스포츠 서비스,당구장,경기도 구리시 건원대로34번길 17,471771.0,11921,127.14120889876,37.6047455397526
건강해GYM디지털엠파이어,예술·스포츠,스포츠 서비스,헬스장,경기도 수원시 영통구 덕영대로1556번길 16,443702.0,16690,127.059171623234,37.2452641707971
에이원민턴배드민턴아카데미,예술·스포츠,스포츠 서비스,기타 스포츠시설 운영업,경기도 성남시 수정구 위례광장로 104,461210.0,13640,127.141265991169,37.4730463798123
골프존,예술·스포츠,스포츠 서비스,골프 연습장,경기도 부천시 원미구 조마루로 2,420032.0,14592,126.744270472016,37.5000554613061
베스트당구장,예술·스포츠,스포츠 서비스,당구장,경기도 부천시 오정구 평천로 725,421810.0,14495,126.771501066716,37.5153382229636
버들골프아카데미,예술·스포츠,스포츠 서비스,골프 연습장,경기도 화성시 우정읍 버들로 979,445956.0,18559,126.82448189562,37.1179561515103
베스트짐,예술·스포츠,스포츠 서비스,헬스장,경기도 성남시 중원구 금상로 56,462814.0,13232,127.1625949519,37.4401680649352
우탄짐,예술·스포츠,스포츠 서비스,헬스장,경기도 부천시 원미구 상동로 109,420861.0,14543,126.752966391498,37.5071198124694
바디작.휴,예술·스포츠,스포츠 서비스,헬스장,경기도 성남시 분당구 장안로 27,463831.0,13583,127.142483219906,37.3697342626546
바디앤케이,예술·스포츠,스포츠 서비스,헬스장,경기도 과천시 사기막길 18,427090.0,13826,126.998587870206,37.4207818880026
히트당구장,예술·스포츠,스포츠 서비스,당구장,경기도 양평군 단월면 보룡길 66,476853.0,12529,127.673957948405,37.5394767178441
크로스핏미사,예술·스포츠,스포츠 서비스,헬스장,경기도 하남시 미사강변동로 95,465150.0,12913,127.191748103944,37.5637241650815
SBS당구클럽,예술·스포츠,스포츠 서비스,당구장,경기도 군포시 군포역1길 10,435815.0,15855,126.946646822882,37.3531840998087
수,예술·스포츠,스포츠 서비스,헬스장,경기도 구리시 안골로57번길 38,471815.0,11927,127.137098833567,37.5990291001486
제이골프,예술·스포츠,스포츠 서비스,골프 연습장,경기도 화성시 봉담읍 동화길 85,445893.0,18302,126.958381296901,37.2169246983059
위너볼링타운,예술·스포츠,스포츠 서비스,볼링장,경기도 화성시 동탄원천로 163,445160.0,18453,127.073674059106,37.2073669793915
운정제일스크린골프존,예술·스포츠,스포츠 서비스,골프 연습장,경기도 파주시 와석순환로 135,413100.0,10905,126.744473675712,37.712040260931
엠브이엠,예술·스포츠,스포츠 서비스,헬스장,경기도 성남시 수정구 위례광장로 300,461210.0,13640,127.142702531257,37.4734771382073
제이에스,예술·스포츠,스포츠 서비스,당구장,경기도 파주시 미래로 369-13,413100.0,10905,126.745293527269,37.7110779954075
바로운동센터,예술·스포츠,스포츠 서비스,헬스장,경기도 안양시 동안구 경수대로884번길 19,431052.0,13954,126.938766412108,37.3975017047915
발트레이닝센터,예술·스포츠,스포츠 서비스,헬스장,경기도 과천시 별양상가로 7,427800.0,13837,126.992949970594,37.4280078480209
앨리스골프클럽,예술·스포츠,스포츠 서비스,골프 연습장,경기도 파주시 와석순환로 511,413190.0,10896,126.762284667132,37.7245199222018
예스골프존,예술·스포츠,스포츠 서비스,골프 연습장,경기도 화성시 태안로 337-1,445400.0,18358,127.021812114346,37.2170561485677
건우스포츠클럽,예술·스포츠,스포츠 서비스,당구장,경기도 성남시 분당구 구미로 120,463802.0,13622,127.1221475991,37.3397347666029
플렉스짐,예술·스포츠,스포츠 서비스,헬스장,경기도 부천시 원미구 길주로 80,420864.0,14544,126.751185522955,37.5052780286752
일산골프존스크린,예술·스포츠,스포츠 서비스,골프 연습장,경기도 고양시 일산서구 중앙로 1565,411805.0,10381,126.747727232669,37.6756208789714
에스당구클럽,예술·스포츠,스포츠 서비스,당구장,경기도 평택시 평남로 1029,450140.0,17849,127.09707794616,37.0094671096977
SG소사스크린골프,예술·스포츠,스포츠 서비스,골프 연습장,경기도 평택시 비전4로 39,450151.0,17854,127.115077733267,37.0019630390189
강호배드민터센터,예술·스포츠,스포츠 서비스,종합 스포츠시설,경기도 이천시 구만리로308번길 8,467802.0,17378,127.464960159898,37.279542503912
바른자세척추운동파주,예술·스포츠,스포츠 서비스,테니스장,경기도 파주시 경의로 1074,413200.0,10908,126.759893954789,37.7131538378106
몸짱만들기GYM,예술·스포츠,스포츠 서비스,헬스장,경기도 안양시 동안구 평촌대로 217,431779.0,14072,126.955631696762,37.3906704769509
베스트프렌즈스크린,예술·스포츠,스포츠 서비스,골프 연습장,경기도 광주시 포은대로 718-50,464807.0,12777,127.249268729995,37.3934435084435
오짐,예술·스포츠,스포츠 서비스,헬스장,경기도 김포시 김포한강4로 507,415080.0,10071,126.627536770543,37.6461199235209
플라잉스토리,예술·스포츠,스포츠 서비스,테니스장,경기도 성남시 분당구 야탑로 233,463817.0,13508,127.144667300442,37.4077187145156
월드GDR골프아카데미,예술·스포츠,스포츠 서비스,헬스장,경기도 안산시 단원구 광덕서로 96,425807.0,15461,126.827650110704,37.313227008546
준당구장,예술·스포츠,스포츠 서비스,당구장,경기도 구리시 건원대로 36,471841.0,11921,127.140483503752,37.6044220492583
무한도전수상레저,예술·스포츠,스포츠 서비스,볼링장,경기도 가평군 가평읍 북한강변로 156,477803.0,12428,127.525429285611,37.7470136597798
다원당구장,예술·스포츠,스포츠 서비스,당구장,경기도 오산시 남부대로 350,447804.0,18145,127.074099708864,37.1356967142785
천마헬스,예술·스포츠,스포츠 서비스,헬스장,경기도 남양주시 화도읍 경춘로 1753,472846.0,12171,127.285156234263,37.6576074914449
아름다운탁구클럽,예술·스포츠,스포츠 서비스,탁구장,경기도 화성시 향남읍 향남로 130,445938.0,18609,126.914666531624,37.1071885170961
라비욘,예술·스포츠,스포츠 서비스,종합 스포츠시설,경기도 김포시 북변중로23번길 38,415832.0,10106,126.710183177539,37.6233317999635
유어라운지,예술·스포츠,스포츠 서비스,헬스장,경기도 성남시 수정구 위례광장로 19,461210.0,13646,127.140630399009,37.4656678652669
쏘마휘트니스,예술·스포츠,스포츠 서비스,헬스장,경기도 고양시 덕양구 화신로272번길 58,412743.0,10500,126.832101513114,37.6336592969528
파크짐,예술·스포츠,스포츠 서비스,헬스장,경기도 포천시 소흘읍 송우로 79,487823.0,11177,127.140262491678,37.8299266430445
스카이,예술·스포츠,스포츠 서비스,골프 연습장,경기도 연천군 전곡읍 양연로 1597,486903.0,11027,127.066327940055,38.0220720424189
골프몬스터즈,예술·스포츠,스포츠 서비스,골프 연습장,경기도 파주시 미래로602번길 45,413190.0,10895,126.751470524819,37.732588322164
휘트니스온,예술·스포츠,스포츠 서비스,헬스장,경기도 성남시 분당구 성남대로 51,463861.0,13636,127.108099025936,37.3405053021179
유앤바디휘트니스,예술·스포츠,스포츠 서비스,헬스장,경기도 성남시 분당구 백현로101번길 12,463825.0,13595,127.112351058929,37.3767496675884
사동휘트니스,예술·스포츠,스포츠 서비스,헬스장,경기도 안산시 상록구 항가울로 33,426825.0,15628,126.847178272073,37.28490724694
왕당구장,예술·스포츠,스포츠 서비스,당구장,경기도 이천시 중리천로 75,467804.0,17369,127.445834446809,37.2792106173771
명산당구장,예술·스포츠,스포츠 서비스,당구장,경기도 광명시 오리로856번길 23,423837.0,14237,126.869299479814,37.4756894862997
SSenbrogym쎈브로짐,예술·스포츠,스포츠 서비스,헬스장,경기도 평택시 지산3로 65-9,459801.0,17720,127.063238308725,37.0806118443376
본당구장,예술·스포츠,스포츠 서비스,당구장,경기도 구리시 이문안로 138,471856.0,11946,127.14665170164,37.590953748925
S맞춤운동센터,예술·스포츠,스포츠 서비스,헬스장,경기도 부천시 소사구 경인로1185번길 71-13,422831.0,14742,126.751144733984,37.4868974509388
연꽃당구장,예술·스포츠,스포츠 서비스,당구장,경기도 시흥시 하중로 130-1,429251.0,14975,126.800337994953,37.398844684761
달라짐,예술·스포츠,스포츠 서비스,헬스장,경기도 수원시 영통구 매탄로 102,443848.0,16545,127.04347973376,37.2597327260979
피피큐당구클럽,예술·스포츠,스포츠 서비스,당구장,경기도 고양시 일산동구 고양대로 892,410842.0,10311,126.794037552752,37.678044373951
올뉴바디운동맛집PT,예술·스포츠,스포츠 서비스,헬스장,경기도 성남시 분당구 벌말로 44,463836.0,13503,127.138654714579,37.4118886272075
강림스크린골프장,예술·스포츠,스포츠 서비스,골프 연습장,경기도 하남시 위례대로2길 20,465240.0,13012,127.149497996832,37.4797487680054
우리골프,예술·스포츠,스포츠 서비스,골프 연습장,경기도 수원시 장안구 경수대로1078번길 12,440851.0,16205,126.995183278831,37.3095680693931
크로스핏오르카,예술·스포츠,스포츠 서비스,헬스장,경기도 안산시 단원구 광덕서로 62,425807.0,15471,126.82742009159,37.3102172204467
스카이골프스쿨,예술·스포츠,스포츠 서비스,골프 연습장,경기도 용인시 수지구 현암로 101,448808.0,16875,127.120465064191,37.3319876279693
제임스당구클럽,예술·스포츠,스포츠 서비스,당구장,경기도 남양주시 두물로11번길 40-19,472501.0,12105,127.1255109451,37.6575700384544
당구클럽,예술·스포츠,스포츠 서비스,당구장,경기도 부천시 소사구 범안로 42,422800.0,14697,126.807250248591,37.4779561908787
프렌즈아카데미동탄PRO점,예술·스포츠,스포츠 서비스,골프 연습장,경기도 오산시 외삼미로 162-42,447230.0,18111,127.064754573397,37.1971182256129
국가대표당구클럽,예술·스포츠,스포츠 서비스,당구장,경기도 동두천시 평화로2313번길 17-20,483010.0,11356,127.056526049223,37.8934055007365
라이프카카오스크린골프,예술·스포츠,스포츠 서비스,골프 연습장,경기도 수원시 장안구 대평로90번길 19,440841.0,16334,126.993762978243,37.2971337039736
아이러브짐,예술·스포츠,스포츠 서비스,헬스장,경기도 군포시 금당로17번길 10,435012.0,15858,126.939809331396,37.3502164340948
세종스크린골프,예술·스포츠,스포츠 서비스,골프 연습장,경기도 여주시 여흥로33번길 8,469107.0,12623,127.628450754407,37.2989343230634
더리셋바디,예술·스포츠,스포츠 서비스,테니스장,경기도 부천시 오정구 역곡로481번길 15,421801.0,14416,126.815267545322,37.5277945442598
당구클럽,예술·스포츠,스포츠 서비스,당구장,경기도 평택시 서정역로 7,459812.0,17783,127.055245900169,37.0547821028889
케이엠당구클럽,예술·스포츠,스포츠 서비스,당구장,경기도 성남시 중원구 광명로 5,462827.0,13355,127.129700030391,37.4331627994264
매화당구장,예술·스포츠,스포츠 서비스,당구장,경기도 시흥시 매화2로 3,429817.0,14940,126.813870899998,37.4158870109059
크리스탈당구장,예술·스포츠,스포츠 서비스,당구장,경기도 부천시 원미구 심중로 48,420825.0,14617,126.772772444429,37.4877249018544
다함께야구왕화성,예술·스포츠,스포츠 서비스,기타 스포츠시설 운영업,경기도 화성시 남양읍 시청로 119,445851.0,18271,126.826487428673,37.2005139476137
VIP스크린,예술·스포츠,스포츠 서비스,골프 연습장,경기도 안성시 석정2길 20-6,456240.0,17578,127.261750730813,37.0094794950258
미래당구장,예술·스포츠,스포츠 서비스,당구장,경기도 광명시 도덕로 49-1,423819.0,14276,126.853179664555,37.4691292264926
나인당구장,예술·스포츠,스포츠 서비스,당구장,경기도 의정부시 경의로 84,480850.0,11655,127.044809894643,37.7328147607104
비타민골프앤휘트니스,예술·스포츠,스포츠 서비스,골프 연습장,경기도 성남시 수정구 산성대로 337,461810.0,13272,127.153483543531,37.4439104460475
제이토탈휘트니스,예술·스포츠,스포츠 서비스,헬스장,경기도 광주시 경충대로1461번길 26,464130.0,12791,127.270228865737,37.399875795506
더블유52스크린골프,예술·스포츠,스포츠 서비스,골프 연습장,경기도 김포시 양촌읍 김포한강4로 327,415824.0,10065,126.646438841682,37.6504937760157
안산골프아카데미스크린골프,예술·스포츠,스포츠 서비스,골프 연습장,경기도 안산시 단원구 광덕2로 156-7,425807.0,15476,126.82781728989,37.3091725994512
옥길스타스크린골프,예술·스포츠,스포츠 서비스,골프 연습장,경기도 부천시 소사구 범안로 231-15,422080.0,14789,126.813066106963,37.4624231226471
킹당구장,예술·스포츠,스포츠 서비스,당구장,경기도 광명시 기아로 15,423826.0,14326,126.881356161992,37.4365982728039
케이투당구장,예술·스포츠,스포츠 서비스,당구장,경기도 안산시 단원구 선부광장1로 84,425831.0,15239,126.812738484104,37.3352616075146
휴스트레칭,예술·스포츠,스포츠 서비스,테니스장,경기도 안산시 단원구 선부광장1로 62,425831.0,15239,126.811302849218,37.3362774903641
짐큐어,예술·스포츠,스포츠 서비스,헬스장,경기도 하남시 위례대로 190,465240.0,13012,127.148116404183,37.4785972171142
산정,예술·스포츠,스포츠 서비스,골프 연습장,경기도 광주시 문형산길 17-27,464895.0,12820,127.160843220964,37.3607905648276
준휘트니스,예술·스포츠,스포츠 서비스,헬스장,경기도 안산시 상록구 도매시장로 113,426859.0,15322,126.864624786284,37.3155456875467
더존헬스,예술·스포츠,스포츠 서비스,헬스장,경기도 안산시 상록구 석호로 196,426823.0,15591,126.852627101423,37.2953481690908
코어짐,예술·스포츠,스포츠 서비스,헬스장,경기도 의정부시 외미로 104-12,480853.0,11638,127.046732668621,37.7236601476239
이레베이스볼클럽,예술·스포츠,스포츠 서비스,기타 스포츠시설 운영업,경기도 안산시 상록구 선진1길 10,426825.0,15633,126.84830807954,37.278222993444
동현스포츠센터,예술·스포츠,스포츠 서비스,헬스장,경기도 안성시 남파로 75,456360.0,17568,127.258382085709,37.016740553104
성원코아당구장,예술·스포츠,스포츠 서비스,당구장,경기도 고양시 덕양구 고양대로 1387,412807.0,10464,126.838321346547,37.6545167341864
진접JJ스크린골프존파크,예술·스포츠,스포츠 서비스,골프 연습장,경기도 남양주시 진접읍 해밀예당1로 36,472861.0,12066,127.186674496578,37.712007200427
세븐당구장,예술·스포츠,스포츠 서비스,당구장,경기도 안양시 만안구 안양로329번길 27,430838.0,14006,126.917779444292,37.4007686917318
스트라이크존,예술·스포츠,스포츠 서비스,기타 스포츠시설 운영업,경기도 안산시 단원구 광덕대로 146,425906.0,15477,126.830681912337,37.3094290222035
카카오스크린,예술·스포츠,스포츠 서비스,골프 연습장,경기도 김포시 김포한강11로 328,415050.0,10073,126.685523420837,37.6554967578007
에스짐휘트니스,예술·스포츠,스포츠 서비스,헬스장,경기도 용인시 기흥구 구성로 95,446525.0,16918,127.120145357003,37.2941805600668
나이스프로암골프,예술·스포츠,스포츠 서비스,골프 연습장,경기도 하남시 미사강변중앙로 220,465150.0,12913,127.189230545195,37.5662870525846
하슬라양주옥정,예술·스포츠,스포츠 서비스,골프 연습장,경기도 양주시 옥정로 196,482130.0,11473,127.09214295192,37.8189464143726
프로당구장,예술·스포츠,스포츠 서비스,당구장,경기도 안산시 상록구 본오로 43,426816.0,15562,126.866048376422,37.2888946721521
스카이뷰휘트니스,예술·스포츠,스포츠 서비스,헬스장,경기도 성남시 중원구 성남대로 1139,462829.0,13376,127.128736601968,37.4313978614908
허지철탁구교실,예술·스포츠,스포츠 서비스,탁구장,경기도 여주시 세종로79번길 8,469102.0,12631,127.635991330796,37.2903253169267
프렌즈스크린,예술·스포츠,스포츠 서비스,골프 연습장,경기도 평택시 서정로 111,459812.0,17768,127.048330973055,37.0713107950425
레벨업휘트니스인창,예술·스포츠,스포츠 서비스,헬스장,경기도 구리시 동구릉로 79,471834.0,11919,127.134055978557,37.6071685326679
에스지골프세마점,예술·스포츠,스포츠 서비스,골프 연습장,경기도 오산시 경기대로 853,447240.0,18111,127.043463944907,37.1929650865897
크로스핏손오공원당점,예술·스포츠,스포츠 서비스,헬스장,경기도 고양시 덕양구 고양대로1384번길 35,412710.0,10468,126.837237790978,37.6525240745729
별당구장,예술·스포츠,스포츠 서비스,당구장,경기도 시흥시 중심상가로 199,429861.0,15066,126.737239307887,37.3440111700253
스포츠당구장,예술·스포츠,스포츠 서비스,당구장,경기도 고양시 일산동구 장대길 160-81,410835.0,10428,126.762912344533,37.6449650156126
빌리원당구클럽,예술·스포츠,스포츠 서비스,당구장,경기도 파주시 금빛로 24-9,413826.0,10915,126.767257650299,37.7519913424582
포시즌스크린골프,예술·스포츠,스포츠 서비스,골프 연습장,경기도 화성시 영통로26번길 15,445330.0,18379,127.065484895177,37.2341239226986
에이전트체대입시의정부교육원,예술·스포츠,스포츠 서비스,헬스장,경기도 의정부시 청사로47번길 15,480865.0,11757,127.069025193627,37.7521558795508
울프짐,예술·스포츠,스포츠 서비스,헬스장,경기도 용인시 기흥구 죽전로 52,446858.0,16898,127.114670019636,37.3202889778833
헬스플러스,예술·스포츠,스포츠 서비스,헬스장,경기도 수원시 장안구 경수대로1073번길 16,440853.0,16348,126.994247094006,37.3084327231036
오거리당구장,예술·스포츠,스포츠 서비스,당구장,경기도 수원시 팔달구 동말로48번길 6,442863.0,16442,126.999424938035,37.2784012755503
대한킥테니스협회,예술·스포츠,스포츠 서비스,테니스장,경기도 김포시 통진읍 서암로84번길 9,415867.0,10018,126.599755718299,37.6920687464724
에스비에스당구장,예술·스포츠,스포츠 서비스,당구장,경기도 안산시 상록구 본삼로 39,426815.0,15537,126.864346094905,37.3011288127281
골프존파크공도,예술·스포츠,스포츠 서비스,골프 연습장,경기도 안성시 공도읍 서동대로 4061,456821.0,17552,127.157335194375,36.9982201139933
알-짐,예술·스포츠,스포츠 서비스,헬스장,경기도 의정부시 가능로 27,480815.0,11675,127.034039202618,37.7467293300917
스마일당구,예술·스포츠,스포츠 서비스,당구장,경기도 용인시 처인구 금령로 141,449929.0,17153,127.21209931881,37.2352676240469
메인스포츠클럽,예술·스포츠,스포츠 서비스,종합 스포츠시설,경기도 의정부시 부용로 105,480865.0,11757,127.069353464166,37.751299767793
애니데이피트니스컴퍼니,예술·스포츠,스포츠 서비스,헬스장,경기도 성남시 분당구 성남대로926번길 12,463828.0,13506,127.129857018978,37.4128446873189
스카이골프존스크린,예술·스포츠,스포츠 서비스,골프 연습장,경기도 고양시 일산동구 하늘마을1로 14,410315.0,10311,126.787063291691,37.675013713721
동화스크린골프,예술·스포츠,스포츠 서비스,골프 연습장,경기도 가평군 가평읍 보납로18번길 22,477805.0,12418,127.513004974214,37.8291091646799
타워휘트니스,예술·스포츠,스포츠 서비스,헬스장,경기도 수원시 장안구 천천로 100,440303.0,16326,126.983995039112,37.3006288091087
빌리어드당구클럽,예술·스포츠,스포츠 서비스,당구장,경기도 김포시 감정로 5,415705.0,10105,126.700012669063,37.6229189586176
국토드론센터,예술·스포츠,스포츠 서비스,테니스장,경기도 의정부시 시민로 80,480941.0,11651,127.044098267294,37.7379775873124
드림오브바디휘트니스,예술·스포츠,스포츠 서비스,헬스장,경기도 수원시 권선구 금곡로102번길 45,441460.0,16388,126.941912235834,37.2721968782506
예쓰봉담스크린골프존,예술·스포츠,스포츠 서비스,골프 연습장,경기도 화성시 봉담읍 삼천병마로 890,445905.0,18335,126.938734133317,37.1869111505137
선부비전골프,예술·스포츠,스포츠 서비스,골프 연습장,경기도 안산시 단원구 선부광장로 67,425830.0,15368,126.811367246733,37.3330879465693
향남티업스크린골프,예술·스포츠,스포츠 서비스,골프 연습장,경기도 화성시 팔탄면 삼천병마로 355-83,445911.0,18533,126.919710294808,37.14636124178
비앤지골프스쿨,예술·스포츠,스포츠 서비스,골프 연습장,경기도 과천시 별양상가2로 20,427800.0,13837,126.992554653143,37.4268274912274
에이볼,예술·스포츠,스포츠 서비스,볼링장,경기도 시흥시 삼미시장1길 37,429830.0,14948,126.782552861249,37.4409628750488
오산아름다운,예술·스포츠,스포츠 서비스,골프 연습장,경기도 오산시 부원로87번길 71,447804.0,18149,127.091649605103,37.1391084772005
에스엠범휘트니스,예술·스포츠,스포츠 서비스,헬스장,경기도 의정부시 오목로 233,480090.0,11813,127.099882486922,37.746827069839
골프존파크정왕중앙배곧점,예술·스포츠,스포츠 서비스,골프 연습장,경기도 시흥시 서울대학로264번길 26-32,,15011,126.72773432376,37.3666054177899
휘트니스플레이스산성역점,예술·스포츠,스포츠 서비스,헬스장,경기도 성남시 수정구 수정로 339,461162.0,13260,127.148644179759,37.4539449074324
핑퐁플렉스,예술·스포츠,스포츠 서비스,테니스장,경기도 오산시 밀머리로1번길 28,447804.0,18144,127.076716721935,37.1416060100844
버디스크린골프,예술·스포츠,스포츠 서비스,골프 연습장,경기도 군포시 고산로 166,435776.0,15850,126.953692569272,37.3487540059562
홀인원스크린골프,예술·스포츠,스포츠 서비스,골프 연습장,경기도 수원시 권선구 곡선로49번길 2,441400.0,16670,127.0302257582,37.2390308519114
앰앤에프트레이닝센터,예술·스포츠,스포츠 서비스,헬스장,경기도 성남시 중원구 광명로323번길 5,462804.0,13178,127.161510577287,37.4456206858115
경희스크린골프,예술·스포츠,스포츠 서비스,골프 연습장,경기도 용인시 기흥구 덕영대로 1811-3,446930.0,17099,127.088875819118,37.2501022314121
서브마린,예술·스포츠,스포츠 서비스,수영장,경기도 용인시 기흥구 구성로 357,446915.0,16914,127.14813183175,37.2912745349389
김포스마일탁구클럽,예술·스포츠,스포츠 서비스,탁구장,경기도 김포시 중봉1로 51,415010.0,10102,126.702609644586,37.6250158152733
여주대왕탁구클럽,예술·스포츠,스포츠 서비스,탁구장,경기도 여주시 도예로 83-5,469121.0,12637,127.643310164095,37.3101713065397
OK당구장,예술·스포츠,스포츠 서비스,당구장,경기도 의정부시 신흥로 204,480850.0,11652,127.043755725464,37.7342567092075
평내나이스볼링장,예술·스포츠,스포츠 서비스,볼링장,경기도 남양주시 경춘로1256번길 10,472938.0,12223,127.234721699693,37.6456635026929
애플짐송도주,예술·스포츠,스포츠 서비스,헬스장,경기도 과천시 향교말1길 35-24,427805.0,13806,126.98776349526,37.4319178379538
위드짐,예술·스포츠,스포츠 서비스,헬스장,경기도 남양주시 미금로 37-6,,12253,127.151567172064,37.6083997168739
종점당구장,예술·스포츠,스포츠 서비스,당구장,경기도 남양주시 경춘로 997,472804.0,12237,127.212403907128,37.6352183523319
헬로우짐,예술·스포츠,스포츠 서비스,헬스장,경기도 고양시 일산서구 일산로 541,411827.0,10375,126.767581431409,37.6774365999173
메리트,예술·스포츠,스포츠 서비스,당구장,경기도 구리시 안골로 102,471820.0,11932,127.142735037439,37.5974006358422
우리당구장,예술·스포츠,스포츠 서비스,당구장,경기도 고양시 일산동구 백석로71번길 14-4,410816.0,10420,126.785635105447,37.6473960944025
아이두,예술·스포츠,스포츠 서비스,골프 연습장,경기도 안양시 동안구 흥안대로 527,431846.0,13951,126.9761581789,37.4011372625222
토탈핏,예술·스포츠,스포츠 서비스,헬스장,경기도 고양시 덕양구 화중로 100,412271.0,10497,126.83146148532,37.6361360917821
제우스당구클럽,예술·스포츠,스포츠 서비스,당구장,경기도 파주시 가람로51번길 11,413190.0,10870,126.754968618929,37.7347940077869
커브스진접클럽,예술·스포츠,스포츠 서비스,헬스장,경기도 남양주시 진접읍 해밀예당3로 52,472861.0,12069,127.198566589103,37.714492474813
수당구클럽,예술·스포츠,스포츠 서비스,당구장,경기도 오산시 내삼미로79번길 12,447290.0,18114,127.064944908948,37.1694737748124
빌라이크당구클럽,예술·스포츠,스포츠 서비스,당구장,경기도 수원시 권선구 금곡로196번길 68,441460.0,16393,126.955046675933,37.2733739472408
우남에이온골프,예술·스포츠,스포츠 서비스,골프 연습장,경기도 수원시 영통구 매탄로 82,443798.0,16547,127.043005476347,37.2583362828739
이글스크린골프,예술·스포츠,스포츠 서비스,골프 연습장,경기도 안산시 단원구 초지동로 61,425854.0,15445,126.816773562851,37.3093001816713
양지골프레인지,예술·스포츠,스포츠 서비스,골프 연습장,경기도 용인시 처인구 양지면 송주로236번길 82-3,449822.0,17159,127.263011966323,37.2379587327976
JJ스크린골프,예술·스포츠,스포츠 서비스,골프 연습장,경기도 광주시 역동로 27,464807.0,12759,127.258264098827,37.4051284421674
허슬러당구클럽,예술·스포츠,스포츠 서비스,당구장,경기도 광주시 능평로 189,464892.0,12773,127.176216528654,37.3458836887751
원바디,예술·스포츠,스포츠 서비스,헬스장,경기도 평택시 현촌5길 5-17,450130.0,17869,127.133798659813,36.9977263500183
파인드핏,예술·스포츠,스포츠 서비스,헬스장,경기도 안양시 동안구 경수대로 546-1,431841.0,14112,126.958250918317,37.3714615939145
고래당구장,예술·스포츠,스포츠 서비스,당구장,경기도 화성시 봉담읍 와우로15번길 59,445897.0,18321,126.975337673774,37.2163347499202
굿모닝골프존스크린,예술·스포츠,스포츠 서비스,골프 연습장,경기도 군포시 번영로 495,435805.0,15865,126.93193555024,37.3581051732363
수지Q스크린,예술·스포츠,스포츠 서비스,골프 연습장,경기도 용인시 수지구 풍덕천로 122,448509.0,16841,127.095549957591,37.3225675546185
케이에스골프스크린II,예술·스포츠,스포츠 서비스,골프 연습장,경기도 남양주시 경강로333번길 31-1,472929.0,12245,127.196091067091,37.5969726638159
화산당구클럽,예술·스포츠,스포츠 서비스,당구장,경기도 용인시 처인구 이동읍 화산로 114,449832.0,17135,127.213683525063,37.1456461757031
크로스핏레스큐,예술·스포츠,스포츠 서비스,기타 스포츠시설 운영업,경기도 평택시 이화로 134-5,450804.0,17865,127.135983725536,37.0072032423912
스트로커스배드민턴트레이닝센터,예술·스포츠,스포츠 서비스,테니스장,경기도 안성시 미양면 구례골길 59-7,456844.0,17598,127.247087980485,36.9921290941737
킬러바디짐,예술·스포츠,스포츠 서비스,헬스장,경기도 의정부시 동일로466번길 48,480830.0,11738,127.061471367864,37.7288609983755
아미가어린이스포츠센타,예술·스포츠,스포츠 서비스,수영장,경기도 파주시 동서대로 700,413836.0,10904,126.754927159085,37.7060619789577
프렌즈아카데미광명KTX,예술·스포츠,스포츠 서비스,골프 연습장,경기도 광명시 양지로 19,423090.0,14345,126.882615259251,37.4190116846553
오렌지골프아카데미,예술·스포츠,스포츠 서비스,골프 연습장,경기도 광주시 초월읍 산수로 7,464962.0,12799,127.31348362592,37.3644400136408
임팩트당구클럽,예술·스포츠,스포츠 서비스,당구장,경기도 시흥시 옥구상가2길 10,429864.0,15040,126.723650605079,37.3535130680626
스매싱탁구클럽,예술·스포츠,스포츠 서비스,탁구장,경기도 안성시 공도읍 만수로 5,456823.0,17549,127.182922421254,37.0058065846955
필승스크린골프,예술·스포츠,스포츠 서비스,골프 연습장,경기도 오산시 경기대로 15,447310.0,18146,127.067756770338,37.1282397150861
삼정스크린,예술·스포츠,스포츠 서비스,골프 연습장,경기도 부천시 오정구 석천로 446,421808.0,14446,126.770382090117,37.5261390557617
골프존파크곤지암스카이스크린,예술·스포츠,스포츠 서비스,골프 연습장,경기도 광주시 곤지암읍 곤지암천로 135,464873.0,12801,127.328132660563,37.3584535275272
북문당구클럽,예술·스포츠,스포츠 서비스,당구장,경기도 수원시 장안구 팔달로291번길 7,440818.0,16269,127.015901395347,37.2908705889139
Q당구클럽,예술·스포츠,스포츠 서비스,당구장,경기도 성남시 분당구 느티로 65,463874.0,13610,127.111853730866,37.368776066734
MBC당구장,예술·스포츠,스포츠 서비스,당구장,경기도 안산시 상록구 석호로 370,426812.0,15556,126.871668629025,37.293081712726
원더점핑다이어트,예술·스포츠,스포츠 서비스,테니스장,경기도 안성시 아양1로 61,456260.0,17577,127.259362412192,37.0076195055913
성심피티PT,예술·스포츠,스포츠 서비스,헬스장,경기도 화성시 동탄순환대로30길 8-1,445716.0,18466,127.108464678833,37.2100614044812
라이즈짐오포,예술·스포츠,스포츠 서비스,헬스장,경기도 광주시 오포안로 253,464889.0,12790,127.215178811228,37.3590553231892
스카이락,예술·스포츠,스포츠 서비스,볼링장,경기도 이천시 영창로 202,467804.0,17369,127.445065615228,37.2807722966012
브이짐,예술·스포츠,스포츠 서비스,헬스장,경기도 김포시 풍무로 20,415809.0,10120,126.721119509882,37.5976710297704
로얄골프존,예술·스포츠,스포츠 서비스,골프 연습장,경기도 남양주시 퇴계원읍 경춘북로 528,472821.0,12126,127.142614727772,37.6470631685479
다농실내테니스,예술·스포츠,스포츠 서비스,테니스장,경기도 안산시 상록구 예술광장로 1,426853.0,15288,126.844246948044,37.3283603333454
신은정탁구교실,예술·스포츠,스포츠 서비스,탁구장,경기도 고양시 일산서구 대산로 114,411848.0,10375,126.764938787107,37.6742869519335
벨짐,예술·스포츠,스포츠 서비스,헬스장,경기도 수원시 팔달구 효원로219번길 33,442833.0,16490,127.026278999716,37.2648376932851
정왕골드스크린,예술·스포츠,스포츠 서비스,골프 연습장,경기도 시흥시 옥구천동로 114,429879.0,15092,126.710579093454,37.3362001156683
골프존파크양지써니세븐점,예술·스포츠,스포츠 서비스,골프 연습장,경기도 용인시 처인구 양지면 중부대로 2465,449826.0,17162,127.313292086204,37.2394492554825
헬크업,예술·스포츠,스포츠 서비스,테니스장,경기도 이천시 영창로300번길 1,467110.0,17361,127.456432689041,37.2809182291798
동그라미탁구교실,예술·스포츠,스포츠 서비스,탁구장,경기도 의정부시 신곡로 45-20,480834.0,11729,127.055403941633,37.7307920836438
프로맨스짐,예술·스포츠,스포츠 서비스,헬스장,경기도 김포시 김포한강1로 57,415060.0,10083,126.668226268867,37.6436195184848
영골프클럽,예술·스포츠,스포츠 서비스,골프 연습장,경기도 부천시 소사구 경인로 125,422818.0,14723,126.769684389221,37.4844392591841
태양당구장,예술·스포츠,스포츠 서비스,당구장,경기도 고양시 덕양구 혜음로 71,412800.0,10272,126.902427859444,37.7068889574912
탑스크린골프,예술·스포츠,스포츠 서비스,골프 연습장,경기도 양주시 고덕로 342,482020.0,11481,127.078530591071,37.8024236905261
양지당구장,예술·스포츠,스포츠 서비스,당구장,경기도 화성시 서신면 해안길 354,445883.0,18553,126.617714978361,37.1722178487956
윈짐,예술·스포츠,스포츠 서비스,헬스장,경기도 이천시 대월면 대산로288번길 75,467852.0,17336,127.474954047938,37.2495885069876
유니짐,예술·스포츠,스포츠 서비스,헬스장,경기도 성남시 수정구 수정로 211,461826.0,13282,127.143020587315,37.4445993302802
미호스크린골프,예술·스포츠,스포츠 서비스,골프 연습장,경기도 수원시 장안구 장안로359번길 19,440840.0,16346,126.985842702423,37.3118289185533
남양주삼패야구장,예술·스포츠,스포츠 서비스,테니스장,경기도 남양주시 고산로 184-1,472932.0,12245,127.18557521767,37.5939353093095
동양당구클럽,예술·스포츠,스포츠 서비스,당구장,경기도 안산시 단원구 광덕2로 185-14,425906.0,15470,126.831423032979,37.3109438174826
쎈바디운동센터,예술·스포츠,스포츠 서비스,헬스장,경기도 수원시 장안구 덕영대로535번길 38,440303.0,16329,126.98241677661,37.2971776140801
국제당구장,예술·스포츠,스포츠 서비스,당구장,경기도 이천시 부발읍 무촌로 134-4,467863.0,17324,127.488475086246,37.2837907727116
신촌당구장,예술·스포츠,스포츠 서비스,당구장,경기도 김포시 하성면 애기봉로 850,415882.0,10011,126.631899057126,37.7195629471921
피망당구클럽,예술·스포츠,스포츠 서비스,당구장,경기도 양주시 고읍남로 6-14,482030.0,11492,127.079148169783,37.7959183453051
세종당구장,예술·스포츠,스포츠 서비스,당구장,경기도 부천시 소사구 호현로 489,422807.0,14755,126.792871943015,37.4811664782445
세원골프존,예술·스포츠,스포츠 서비스,골프 연습장,경기도 이천시 부발읍 대산로 480,467863.0,17327,127.479168667367,37.2601316575173
대산대천SK스크린골프,예술·스포츠,스포츠 서비스,골프 연습장,경기도 화성시 화산중앙로64번길 3,445370.0,18357,127.011794973289,37.2097050025553
골프존파크관산세븐럭,예술·스포츠,스포츠 서비스,골프 연습장,경기도 고양시 덕양구 통일로 1092,412802.0,10264,126.852792714662,37.7119009067994
뉴동원당구장,예술·스포츠,스포츠 서비스,당구장,경기도 구리시 체육관로171번길 12,471801.0,11925,127.13522097364,37.6000854251323
김진혁탁구클럽,예술·스포츠,스포츠 서비스,탁구장,경기도 용인시 처인구 중부대로 1331,449931.0,17048,127.192942386566,37.2355977290153
OK2스크린골프,예술·스포츠,스포츠 서비스,골프 연습장,경기도 용인시 수지구 현암로 128,448808.0,16880,127.123499554291,37.3314799219957
레인보당구장,예술·스포츠,스포츠 서비스,당구장,경기도 광명시 시청로 106-1,423831.0,14226,126.866217698006,37.4858133719305
첼시,예술·스포츠,스포츠 서비스,헬스장,경기도 고양시 덕양구 화신로260번길 47,412827.0,10500,126.832590485166,37.6328491054787
우신골프클럽,예술·스포츠,스포츠 서비스,골프 연습장,경기도 김포시 풍무로 25,415809.0,10119,126.720200881843,37.5980472707149
대진당구장,예술·스포츠,스포츠 서비스,당구장,경기도 고양시 일산서구 대산로 220,411803.0,10370,126.754450191196,37.6787614571927
슬림앤스트롱헬스장,예술·스포츠,스포츠 서비스,헬스장,경기도 구리시 장자대로86번길 18,471033.0,11948,127.139782274493,37.5867454421584
휘트니스GQ,예술·스포츠,스포츠 서비스,헬스장,경기도 시흥시 옥구상가2길 4,429864.0,15040,126.723999011973,37.3539193430361
친구당구장,예술·스포츠,스포츠 서비스,당구장,경기도 화성시 팔탄면 삼천병마로 582,445708.0,18533,126.930694883037,37.1601814061386
황제당구장,예술·스포츠,스포츠 서비스,당구장,경기도 용인시 기흥구 언동로 220,446517.0,16986,127.143930285341,37.2761422734538
더볼링,예술·스포츠,스포츠 서비스,볼링장,경기도 고양시 덕양구 화신로260번길 36,412827.0,10500,126.833079184595,37.6321560395118
위너3차원,예술·스포츠,스포츠 서비스,골프 연습장,경기도 성남시 분당구 운중로 118,463440.0,13466,127.076067118483,37.3913841633286
제이토탈휘트니스,예술·스포츠,스포츠 서비스,종합 스포츠시설,경기도 성남시 수정구 모란로 68,461807.0,13313,127.126060347771,37.439041356864
동그라미당구장,예술·스포츠,스포츠 서비스,당구장,경기도 남양주시 미금로 34,,12254,127.152290834858,37.607831162331
만나스크린골프,예술·스포츠,스포츠 서비스,골프 연습장,경기도 성남시 분당구 장미로48번길 14,463828.0,13496,127.125496502348,37.4126511721569
프로당구장,예술·스포츠,스포츠 서비스,당구장,경기도 수원시 장안구 서부로2105번길 26-3,440827.0,16362,126.968690874357,37.2970216027582
제이앤엘코퍼레이션하남,예술·스포츠,스포츠 서비스,헬스장,경기도 하남시 미사강변동로 73,465150.0,12913,127.192998835318,37.5615417186915
베네핏골프아카데미,예술·스포츠,스포츠 서비스,골프 연습장,경기도 남양주시 의안로 121-20,472140.0,12226,127.237058207931,37.6428297471412
에이스우림당구상사,예술·스포츠,스포츠 서비스,당구장,경기도 평택시 막곡길 8,459060.0,17742,127.08546008394,37.0395900832911
피트,예술·스포츠,스포츠 서비스,헬스장,경기도 성남시 분당구 성남대로331번길 8,463782.0,13558,127.106634096381,37.3659426558844
월드골프클럽,예술·스포츠,스포츠 서비스,골프 연습장,경기도 광명시 도덕공원로 23,423843.0,14253,126.865452168841,37.4713423020994
한국체육산업개발주,예술·스포츠,스포츠 서비스,기타 스포츠시설 운영업,경기도 하남시 미사대로 505,465809.0,12900,127.21323591746,37.5536231908413
제이에이치아카데미골프,예술·스포츠,스포츠 서비스,골프 연습장,경기도 구리시 동구릉로 149,471833.0,11914,127.137609726363,37.6120387912356
골프존파크장곡조이점,예술·스포츠,스포츠 서비스,골프 연습장,경기도 시흥시 황고개로 530,429430.0,14996,126.78924888167,37.3782010568699
롤러몬롤러스케이트,예술·스포츠,스포츠 서비스,기타 스포츠시설 운영업,경기도 김포시 중구로 75,415832.0,10098,126.711187974762,37.6271274063062
퍼펙트스크린,예술·스포츠,스포츠 서비스,골프 연습장,경기도 김포시 대곶면 율마로 42,415837.0,10039,126.592946771712,37.6558443166968
기아,예술·스포츠,스포츠 서비스,종합 스포츠시설,경기도 화성시 우정읍 기아자동차로 95,445951.0,18571,126.788975421219,37.0392620013002
원모어피트니스,예술·스포츠,스포츠 서비스,헬스장,경기도 고양시 일산동구 중앙로 1189,410837.0,10414,126.776825899687,37.6527946568637
하남탁구클럽,예술·스포츠,스포츠 서비스,탁구장,경기도 하남시 하남대로776번길 35,465810.0,12950,127.212644833793,37.5407580154478
월드당구장,예술·스포츠,스포츠 서비스,당구장,경기도 안산시 상록구 성호로 258,426820.0,15312,126.858489949595,37.3264229858874
프렌즈스크린VIP로얄,예술·스포츠,스포츠 서비스,골프 연습장,경기도 남양주시 진접읍 해밀예당3로 56-44,472861.0,12063,127.201460747546,37.715262400812
365당구장,예술·스포츠,스포츠 서비스,당구장,경기도 고양시 일산서구 산현로92번길 60,411860.0,10347,126.77082059805,37.6894259222885
킹바디짐,예술·스포츠,스포츠 서비스,헬스장,경기도 오산시 대호로62번길 63-5,447140.0,18122,127.055387924692,37.1572602887281
프로스크린골프존,예술·스포츠,스포츠 서비스,골프 연습장,경기도 의정부시 민락로 398,480080.0,11815,127.113343164198,37.7567795910399
임윤수당구아카데미,예술·스포츠,스포츠 서비스,당구장,경기도 고양시 일산동구 강석로 149,410811.0,10414,126.777683989577,37.6538504247869
PGA스크린골프,예술·스포츠,스포츠 서비스,골프 연습장,경기도 포천시 소흘읍 솔모루로 114,487823.0,11174,127.149249729315,37.8310057527646
당근스크린골프,예술·스포츠,스포츠 서비스,골프 연습장,경기도 오산시 세마역로19번길 6-2,447240.0,18106,127.044381056894,37.181935848405
주오,예술·스포츠,스포츠 서비스,골프 연습장,경기도 의정부시 시민로 237,480831.0,11748,127.061091567707,37.7360239106124
무봉리스크린골프,예술·스포츠,스포츠 서비스,골프 연습장,경기도 포천시 소흘읍 호국로 475,487826.0,11184,127.135248997427,37.8152198936639
와우점핑다이어트,예술·스포츠,스포츠 서비스,기타 스포츠시설 운영업,경기도 평택시 평택5로114번길 8,450810.0,17885,127.11097913066,36.9956683779607
하미용탁구교실,예술·스포츠,스포츠 서비스,탁구장,경기도 안양시 만안구 삼덕로 86,430832.0,14002,126.917558903452,37.3958940123034
드럼통,예술·스포츠,스포츠 서비스,골프 연습장,경기도 용인시 기흥구 신구로 6-2,446597.0,17064,127.109783200582,37.2725386631587
포시즌스크린,예술·스포츠,스포츠 서비스,골프 연습장,경기도 안산시 단원구 원포공원2로 35,425856.0,15455,126.813520928453,37.3017444314654
우정한마음탁구클럽,예술·스포츠,스포츠 서비스,탁구장,경기도 화성시 장안면 기아자동차로 743-12,445942.0,18585,126.813521329487,37.0725617057537
이수진승마클럽,예술·스포츠,스포츠 서비스,당구장,경기도 파주시 월롱면 월롱초교길 166,413811.0,10844,126.780155353086,37.795523586817
그린당구클럽,예술·스포츠,스포츠 서비스,당구장,경기도 동두천시 거북마루로 20,483010.0,11348,127.048387517675,37.8958236616426
크라운핏,예술·스포츠,스포츠 서비스,헬스장,경기도 안산시 상록구 본오로 140,426810.0,15536,126.866901551109,37.2975095489124
K비전스포츠,예술·스포츠,스포츠 서비스,헬스장,경기도 용인시 기흥구 한보라1로 6,446904.0,17080,127.109249474034,37.2542930600516
허리우드당구장,예술·스포츠,스포츠 서비스,당구장,경기도 광명시 광명로831번길 7,423816.0,14294,126.850615915996,37.4736400718352
피플스크린골프존,예술·스포츠,스포츠 서비스,골프 연습장,경기도 부천시 오정구 수도로 93,421805.0,14491,126.775911083164,37.5157971729574
프랙티스스튜디오,예술·스포츠,스포츠 서비스,헬스장,경기도 성남시 분당구 판교공원로1길 49,463410.0,13477,127.093185212759,37.390155532537
커브스양평클럽,예술·스포츠,스포츠 서비스,헬스장,경기도 양평군 양평읍 남북로 58,476804.0,12560,127.501944207109,37.4878141864019
로또당구장,예술·스포츠,스포츠 서비스,당구장,경기도 안산시 단원구 다리간로 26-1,425802.0,15459,126.824826422178,37.3147185778965
스마트골프아카데미,예술·스포츠,스포츠 서비스,골프 연습장,경기도 고양시 덕양구 꽃마을로 27,412160.0,10545,126.89050716832,37.6002112067079
쎈스골프존,예술·스포츠,스포츠 서비스,골프 연습장,경기도 성남시 분당구 불곡로 4,463815.0,13604,127.122969615617,37.359403368498
준당구클럽,예술·스포츠,스포츠 서비스,당구장,경기도 남양주시 와부읍 수레로 48,472901.0,12209,127.217116539577,37.588331402022
지지캐롬클럽,예술·스포츠,스포츠 서비스,당구장,경기도 고양시 일산동구 중앙로 1048,410816.0,10447,126.787855322877,37.6436610313546
웰골프랜드,예술·스포츠,스포츠 서비스,골프 연습장,경기도 포천시 소흘읍 호국로 493-46,487826.0,11184,127.134357962782,37.8186175211369
프렌즈골프스쿨,예술·스포츠,스포츠 서비스,골프 연습장,경기도 과천시 별양상가1로 40,427800.0,13837,126.993752133653,37.4280529439957
나이스당구클럽,예술·스포츠,스포츠 서비스,당구장,경기도 부천시 원미구 길주로391번길 24,420120.0,14528,126.786179880474,37.5045626820536
웰스핏,예술·스포츠,스포츠 서비스,헬스장,경기도 용인시 처인구 명지로40번길 15-15,449933.0,17056,127.186711097555,37.2312917090476
아워짐,예술·스포츠,스포츠 서비스,헬스장,경기도 성남시 수정구 위례서일로3길 33,461210.0,13647,127.139301086395,37.4681111781852
빈,예술·스포츠,스포츠 서비스,골프 연습장,경기도 고양시 덕양구 충장로282번길 32-1,412272.0,10482,126.83954605228,37.6383367550078
썬당구클럽,예술·스포츠,스포츠 서비스,당구장,경기도 남양주시 와부읍 덕소로 278,472908.0,12276,127.22581184797,37.5770166520237
오예점핑다이어트,예술·스포츠,스포츠 서비스,헬스장,경기도 수원시 권선구 금곡로 13,441460.0,16381,126.938633969445,37.2688703829053
프렌즈스크린역북점,예술·스포츠,스포츠 서비스,골프 연습장,경기도 용인시 처인구 성산로170번길 10,449930.0,17045,127.192032157171,37.2499438296418
당구채널,예술·스포츠,스포츠 서비스,당구장,경기도 부천시 원미구 길주로77번길 55-25,420861.0,14543,126.750692676207,37.5072411759526
경동락볼링장,예술·스포츠,스포츠 서비스,볼링장,경기도 양주시 고읍남로 13,482030.0,11492,127.080350698562,37.7950075610518
아방궁당구클럽,예술·스포츠,스포츠 서비스,당구장,경기도 성남시 수정구 산성대로265번길 5,461862.0,13353,127.146132713987,37.4410815684988
명품당구클럽,예술·스포츠,스포츠 서비스,당구장,경기도 성남시 분당구 돌마로 87,463805.0,13618,127.111736163661,37.3503952244874
큐볼당구클럽,예술·스포츠,스포츠 서비스,당구장,경기도 용인시 수지구 정든로6번길 2,448160.0,16873,127.112886565991,37.3272286436127
유핏,예술·스포츠,스포츠 서비스,헬스장,경기도 부천시 원미구 옥산로 143-1,420808.0,14532,126.78010119833,37.5064075900565
업템포짐,예술·스포츠,스포츠 서비스,헬스장,경기도 고양시 덕양구 꽃마을로 4,412160.0,10546,126.892411626884,37.598816422876
필그린스타골프아카데미,예술·스포츠,스포츠 서비스,골프 연습장,경기도 평택시 비전2로 79,450151.0,17851,127.100958164622,37.0038771703803
더문,예술·스포츠,스포츠 서비스,헬스장,경기도 수원시 권선구 곡선로 37,441400.0,16670,127.028862236134,37.2393735895313
나이스당구장,예술·스포츠,스포츠 서비스,당구장,경기도 부천시 원미구 부일로 761,420835.0,14670,126.813988783515,37.4869230065638
달인당구장,예술·스포츠,스포츠 서비스,당구장,경기도 성남시 수정구 수정로119번길 7-1,461827.0,13305,127.133139356708,37.4420610040464
팡팡당구장,예술·스포츠,스포츠 서비스,당구장,경기도 수원시 팔달구 팔달로107번길 49,442862.0,16442,127.000552509264,37.27823007806
공단큐당구클럽,예술·스포츠,스포츠 서비스,당구장,경기도 화성시 양감면 은행나무로62번길 26,445935.0,18633,126.938472158984,37.0654296953081
남스짐,예술·스포츠,스포츠 서비스,헬스장,경기도 군포시 고산로 691,435849.0,15802,126.934802070653,37.3717753615797
에블바디피티샵,예술·스포츠,스포츠 서비스,헬스장,경기도 파주시 해올2길 16,413080.0,10865,126.731635435857,37.73408549062
스퍼스짐,예술·스포츠,스포츠 서비스,헬스장,경기도 부천시 원미구 중동로254번길 19,420852.0,14548,126.769866459077,37.5024867485861
유엘짐헬스피티,예술·스포츠,스포츠 서비스,헬스장,경기도 이천시 장호원읍 서동대로8809번길 76,467902.0,17421,127.614420402017,37.1183411544423
일프로짐,예술·스포츠,스포츠 서비스,헬스장,경기도 평택시 용죽2로 32-46,450152.0,17870,127.125443317396,36.9926263360141
테니스타,예술·스포츠,스포츠 서비스,테니스장,경기도 부천시 소사구 옥길로 131,422080.0,14784,126.822987023005,37.4686463604215
3949당구장,예술·스포츠,스포츠 서비스,당구장,경기도 파주시 문산읍 문향로49번길 13-2,413904.0,10823,126.784509871264,37.8559586599643
이튼당구클럽,예술·스포츠,스포츠 서비스,당구장,경기도 용인시 처인구 한터로152번길 2,449921.0,17149,127.227059485914,37.2484852273738
원뜰당구장,예술·스포츠,스포츠 서비스,당구장,경기도 화성시 매송면 화성로 2359,445832.0,18289,126.923612788565,37.2503181865776
빅박스당구장,예술·스포츠,스포츠 서비스,당구장,경기도 광주시 양촌길 116-6,464893.0,12798,127.246730395432,37.3701033526128
SM빌리아드클럽,예술·스포츠,스포츠 서비스,당구장,경기도 남양주시 오남읍 진건오남로 915,472881.0,12036,127.193699296216,37.7050854068988
GG스크린골프,예술·스포츠,스포츠 서비스,골프 연습장,경기도 안산시 단원구 풍전로 37-9,425850.0,15431,126.788663259725,37.325327739093
다빈치포켓클럽,예술·스포츠,스포츠 서비스,당구장,경기도 수원시 팔달구 경수대로446번길 62,442834.0,16490,127.029897911115,37.2649719910148
토마토당구장,예술·스포츠,스포츠 서비스,당구장,경기도 화성시 봉담읍 와우로73번길 6,445897.0,18321,126.974211780276,37.2141179281628
그랜드실내,예술·스포츠,스포츠 서비스,골프 연습장,경기도 의정부시 평화로552번길 18,480843.0,11695,127.048173222798,37.7411834433906
스카이스크린골프,예술·스포츠,스포츠 서비스,골프 연습장,경기도 고양시 덕양구 충장로 134,412836.0,10495,126.834942953083,37.6244011759974
